{
  "type" : "FeatureCollection",
  "features" : [ {
    "type" : "Feature",
    "properties" : {
      "N." : "1",
      "Indirizzo" : "via Artiaco, 196",
      "Sopralluogo speditivo VVF/Comune" : "null",
      "STRUTTURALE" : "S",
      "Tipo danno" : "Lesione pilastri",
      "Comune" : "Pozzuoli"
    },
    "geometry" : {
      "type" : "Point",
      "coordinates" : [ 14.1166626, 40.8372768 ]
    }
  }, {
    "type" : "Feature",
    "properties" : {
      "N." : "2",
      "Indirizzo" : "via Catullo, 85",
      "Sopralluogo speditivo VVF/Comune" : "null",
      "STRUTTURALE" : "S",
      "Tipo danno" : "Lesione tramezzi e pilastri",
      "Comune" : "Pozzuoli"
    },
    "geometry" : {
      "type" : "Point",
      "coordinates" : [ 14.0876969, 40.8480032 ]
    }
  }, {
    "type" : "Feature",
    "properties" : {
      "N." : "3",
      "Indirizzo" : "via Savino Vitagliano, 22",
      "Sopralluogo speditivo VVF/Comune" : "null",
      "STRUTTURALE" : "S",
      "Tipo danno" : "Lesioni muratura, c.a., porte bloccate",
      "Comune" : "Pozzuoli"
    },
    "geometry" : {
      "type" : "Point",
      "coordinates" : [ 14.1337898, 40.82132379999999 ]
    }
  }, {
    "type" : "Feature",
    "properties" : {
      "N." : "4",
      "Indirizzo" : "via Diocleziano, 25 (Parco Delta)",
      "Sopralluogo speditivo VVF/Comune" : "null",
      "STRUTTURALE" : "S",
      "Tipo danno" : "3 piani, c.a., lesioni tramezzi",
      "Comune" : "Pozzuoli"
    },
    "geometry" : {
      "type" : "Point",
      "coordinates" : [ 14.1085823, 40.8346487 ]
    }
  }, {
    "type" : "Feature",
    "properties" : {
      "N." : "5",
      "Indirizzo" : "via Matilde Serao, quarto",
      "Sopralluogo speditivo VVF/Comune" : "null",
      "STRUTTURALE" : "null",
      "Tipo danno" : "comunicazione interrotta a seguito scossa",
      "Comune" : "Pozzuoli"
    },
    "geometry" : {
      "type" : "Point",
      "coordinates" : [ 14.1422412, 40.8853444 ]
    }
  }, {
    "type" : "Feature",
    "properties" : {
      "N." : "6",
      "Indirizzo" : "via Massimo Campigli, 18 Fabb.34b",
      "Sopralluogo speditivo VVF/Comune" : "null",
      "STRUTTURALE" : "null",
      "Tipo danno" : "Genitori allettati - che fare? (600 alloggi)",
      "Comune" : "Pozzuoli"
    },
    "geometry" : {
      "type" : "Point",
      "coordinates" : [ 14.1085823, 40.8346487 ]
    }
  }, {
    "type" : "Feature",
    "properties" : {
      "N." : "7",
      "Indirizzo" : "via Monteruscello, 1",
      "Sopralluogo speditivo VVF/Comune" : "null",
      "STRUTTURALE" : "null",
      "Tipo danno" : "un genitore allettato - che fare?",
      "Comune" : "Pozzuoli"
    },
    "geometry" : {
      "type" : "Point",
      "coordinates" : [ 14.084391, 40.85774869999999 ]
    }
  }, {
    "type" : "Feature",
    "properties" : {
      "N." : "8",
      "Indirizzo" : "via Vecchia delle Vigne, 20",
      "Sopralluogo speditivo VVF/Comune" : "null",
      "STRUTTURALE" : "S",
      "Tipo danno" : "caduta calcinacci",
      "Comune" : "Pozzuoli"
    },
    "geometry" : {
      "type" : "Point",
      "coordinates" : [ 14.1303892, 40.8300383 ]
    }
  }, {
    "type" : "Feature",
    "properties" : {
      "N." : "9",
      "Indirizzo" : "via Prima Tr. Virgilio, 14",
      "Sopralluogo speditivo VVF/Comune" : "null",
      "STRUTTURALE" : "S",
      "Tipo danno" : "lesioni",
      "Comune" : "Pozzuoli"
    },
    "geometry" : {
      "type" : "Point",
      "coordinates" : [ 14.0940359, 40.8327947 ]
    }
  }, {
    "type" : "Feature",
    "properties" : {
      "N." : "10",
      "Indirizzo" : "Via Giacinto Diano, 57",
      "Sopralluogo speditivo VVF/Comune" : "null",
      "STRUTTURALE" : "null",
      "Tipo danno" : "persona allettata - che fare?",
      "Comune" : "Pozzuoli"
    },
    "geometry" : {
      "type" : "Point",
      "coordinates" : [ 14.1259559, 40.8285686 ]
    }
  }, {
    "type" : "Feature",
    "properties" : {
      "N." : "11",
      "Indirizzo" : "Via Giacinto Diano, 41",
      "Sopralluogo speditivo VVF/Comune" : "null",
      "STRUTTURALE" : "S",
      "Tipo danno" : "Lesioni",
      "Comune" : "Pozzuoli"
    },
    "geometry" : {
      "type" : "Point",
      "coordinates" : [ 14.1250583, 40.8292987 ]
    }
  }, {
    "type" : "Feature",
    "properties" : {
      "N." : "12",
      "Indirizzo" : "Via Alfonso Artiaco, 132",
      "Sopralluogo speditivo VVF/Comune" : "null",
      "STRUTTURALE" : "null",
      "Tipo danno" : "null",
      "Comune" : "Pozzuoli"
    },
    "geometry" : {
      "type" : "Point",
      "coordinates" : [ 14.1159922, 40.83564760000001 ]
    }
  }, {
    "type" : "Feature",
    "properties" : {
      "N." : "13",
      "Indirizzo" : "Via Alfonso Artiaco, 198",
      "Sopralluogo speditivo VVF/Comune" : "null",
      "STRUTTURALE" : "null",
      "Tipo danno" : "null",
      "Comune" : "Pozzuoli"
    },
    "geometry" : {
      "type" : "Point",
      "coordinates" : [ 14.1162301, 40.8372077 ]
    }
  }, {
    "type" : "Feature",
    "properties" : {
      "N." : "14",
      "Indirizzo" : "II Traversa Coste d' Agnano, 30",
      "Sopralluogo speditivo VVF/Comune" : "null",
      "STRUTTURALE" : "null",
      "Tipo danno" : "null",
      "Comune" : "Pozzuoli"
    },
    "geometry" : {
      "type" : "Point",
      "coordinates" : [ 14.1345822, 40.8294682 ]
    }
  }, {
    "type" : "Feature",
    "properties" : {
      "N." : "15",
      "Indirizzo" : "C.so Umberto I, 127",
      "Sopralluogo speditivo VVF/Comune" : "null",
      "STRUTTURALE" : "null",
      "Tipo danno" : "lesioni",
      "Comune" : "Pozzuoli"
    },
    "geometry" : {
      "type" : "Point",
      "coordinates" : [ 14.131305, 40.8213873 ]
    }
  }, {
    "type" : "Feature",
    "properties" : {
      "N." : "16",
      "Indirizzo" : "Via Cicerone, 7",
      "Sopralluogo speditivo VVF/Comune" : "null",
      "STRUTTURALE" : "S",
      "Tipo danno" : "crepe al soffitto",
      "Comune" : "Pozzuoli"
    },
    "geometry" : {
      "type" : "Point",
      "coordinates" : [ 14.0900096, 40.8428479 ]
    }
  }, {
    "type" : "Feature",
    "properties" : {
      "N." : "17",
      "Indirizzo" : "Lotto 1 Bis - Fabb. D - Cancello S",
      "Sopralluogo speditivo VVF/Comune" : "null",
      "STRUTTURALE" : "null",
      "Tipo danno" : "due invalidi al primo piano",
      "Comune" : "Pozzuoli"
    },
    "geometry" : {
      "type" : "Point",
      "coordinates" : [ 14.1085823, 40.8346487 ]
    }
  }, {
    "type" : "Feature",
    "properties" : {
      "N." : "18",
      "Indirizzo" : "Via Montenuovo Licola Patria, 86",
      "Sopralluogo speditivo VVF/Comune" : "null",
      "STRUTTURALE" : "S",
      "Tipo danno" : "lesioni pareti, scricchiolii vari, fabb. in c.a., 3p.f.t",
      "Comune" : "Pozzuoli"
    },
    "geometry" : {
      "type" : "Point",
      "coordinates" : [ 14.0906109, 40.8405509 ]
    }
  }, {
    "type" : "Feature",
    "properties" : {
      "N." : "19",
      "Indirizzo" : "Via Gavia Marciana, 8",
      "Sopralluogo speditivo VVF/Comune" : "null",
      "STRUTTURALE" : "null",
      "Tipo danno" : "Richiesta alloggio questa notte signora  allettata",
      "Comune" : "Pozzuoli"
    },
    "geometry" : {
      "type" : "Point",
      "coordinates" : [ 14.0859497, 40.8458666 ]
    }
  }, {
    "type" : "Feature",
    "properties" : {
      "N." : "20",
      "Indirizzo" : "VIA VECCHIA CAMPANA 38 (PARCO DE LUCA)",
      "Sopralluogo speditivo VVF/Comune" : "null",
      "STRUTTURALE" : "S",
      "Tipo danno" : "LESIONI SU TRAMEZZATURE TELAIO IN C.A.",
      "Comune" : "Pozzuoli"
    },
    "geometry" : {
      "type" : "Point",
      "coordinates" : [ 14.1207799, 40.84138859999999 ]
    }
  }, {
    "type" : "Feature",
    "properties" : {
      "N." : "21",
      "Indirizzo" : "Traversa Giacinto Diano, 29",
      "Sopralluogo speditivo VVF/Comune" : "null",
      "STRUTTURALE" : "S",
      "Tipo danno" : "Lesioni scale, lesioni appartamento e muro maestro",
      "Comune" : "Pozzuoli"
    },
    "geometry" : {
      "type" : "Point",
      "coordinates" : [ 14.1234903, 40.8282616 ]
    }
  }, {
    "type" : "Feature",
    "properties" : {
      "N." : "22",
      "Indirizzo" : "Via Spezzata Tranvai, 1",
      "Sopralluogo speditivo VVF/Comune" : "null",
      "STRUTTURALE" : "null",
      "Tipo danno" : "Richiesta aiuto per portare su due persone non deambulanti",
      "Comune" : "Pozzuoli"
    },
    "geometry" : {
      "type" : "Point",
      "coordinates" : [ 14.12419, 40.8218824 ]
    }
  }, {
    "type" : "Feature",
    "properties" : {
      "N." : "23",
      "Indirizzo" : "Via Raimondo Annecchino, 218",
      "Sopralluogo speditivo VVF/Comune" : "null",
      "STRUTTURALE" : "S",
      "Tipo danno" : "Lesioni",
      "Comune" : "Pozzuoli"
    },
    "geometry" : {
      "type" : "Point",
      "coordinates" : [ 14.1031744, 40.8342783 ]
    }
  }, {
    "type" : "Feature",
    "properties" : {
      "N." : "24",
      "Indirizzo" : "Via Pisciartelli, 23",
      "Sopralluogo speditivo VVF/Comune" : "null",
      "STRUTTURALE" : "S",
      "Tipo danno" : "Lesioni",
      "Comune" : "Pozzuoli"
    },
    "geometry" : {
      "type" : "Point",
      "coordinates" : [ 14.155978, 40.8316485 ]
    }
  }, {
    "type" : "Feature",
    "properties" : {
      "N." : "25",
      "Indirizzo" : "Via Cupa delle Fescine, 35",
      "Sopralluogo speditivo VVF/Comune" : "null",
      "STRUTTURALE" : "null",
      "Tipo danno" : "Segnalazione per sospensione lavori ENEL in data 21/05/2024",
      "Comune" : "Pozzuoli"
    },
    "geometry" : {
      "type" : "Point",
      "coordinates" : [ 14.1048594, 40.8639266 ]
    }
  }, {
    "type" : "Feature",
    "properties" : {
      "N." : "26",
      "Indirizzo" : "Via Coste D'Agnano, 48",
      "Sopralluogo speditivo VVF/Comune" : "null",
      "STRUTTURALE" : "null",
      "Tipo danno" : "null",
      "Comune" : "Pozzuoli"
    },
    "geometry" : {
      "type" : "Point",
      "coordinates" : [ 14.138831, 40.8324227 ]
    }
  }, {
    "type" : "Feature",
    "properties" : {
      "N." : "27",
      "Indirizzo" : "Via Traversa Diano, 42 - P.co Bono",
      "Sopralluogo speditivo VVF/Comune" : "null",
      "STRUTTURALE" : "S",
      "Tipo danno" : "Lesioni",
      "Comune" : "Pozzuoli"
    },
    "geometry" : {
      "type" : "Point",
      "coordinates" : [ 14.1263836, 40.8291414 ]
    }
  }, {
    "type" : "Feature",
    "properties" : {
      "N." : "28",
      "Indirizzo" : "Via Cofanara, 34",
      "Sopralluogo speditivo VVF/Comune" : "null",
      "STRUTTURALE" : "null",
      "Tipo danno" : "Richiesta aiuto persone anziane",
      "Comune" : "Pozzuoli"
    },
    "geometry" : {
      "type" : "Point",
      "coordinates" : [ 14.1284787, 40.8499828 ]
    }
  }, {
    "type" : "Feature",
    "properties" : {
      "N." : "29",
      "Indirizzo" : "Via Diano, 41, Int. 4",
      "Sopralluogo speditivo VVF/Comune" : "null",
      "STRUTTURALE" : "S",
      "Tipo danno" : "Lesioni",
      "Comune" : "Pozzuoli"
    },
    "geometry" : {
      "type" : "Point",
      "coordinates" : [ 14.1250583, 40.8292987 ]
    }
  }, {
    "type" : "Feature",
    "properties" : {
      "N." : "30",
      "Indirizzo" : "Via terracciano, 19 - Isolato 28",
      "Sopralluogo speditivo VVF/Comune" : "null",
      "STRUTTURALE" : "S",
      "Tipo danno" : "Pareti lesionate",
      "Comune" : "Pozzuoli"
    },
    "geometry" : {
      "type" : "Point",
      "coordinates" : [ 14.1210405, 40.8302976 ]
    }
  }, {
    "type" : "Feature",
    "properties" : {
      "N." : "31",
      "Indirizzo" : "Via Vecchia delle Vigne, 28 int.9",
      "Sopralluogo speditivo VVF/Comune" : "null",
      "STRUTTURALE" : "S",
      "Tipo danno" : "Lesione al muro",
      "Comune" : "Pozzuoli"
    },
    "geometry" : {
      "type" : "Point",
      "coordinates" : [ 14.1314455, 40.8304929 ]
    }
  }, {
    "type" : "Feature",
    "properties" : {
      "N." : "32",
      "Indirizzo" : "Le Croci, 41",
      "Sopralluogo speditivo VVF/Comune" : "null",
      "STRUTTURALE" : "S",
      "Tipo danno" : "crepe",
      "Comune" : "Pozzuoli"
    },
    "geometry" : {
      "type" : "Point",
      "coordinates" : [ 14.1085823, 40.8346487 ]
    }
  }, {
    "type" : "Feature",
    "properties" : {
      "N." : "33",
      "Indirizzo" : "Via Massimo Campignli,12",
      "Sopralluogo speditivo VVF/Comune" : "null",
      "STRUTTURALE" : "S",
      "Tipo danno" : "crepe",
      "Comune" : "Pozzuoli"
    },
    "geometry" : {
      "type" : "Point",
      "coordinates" : [ 14.1085823, 40.8346487 ]
    }
  }, {
    "type" : "Feature",
    "properties" : {
      "N." : "34",
      "Indirizzo" : "Via Ovidio, 71",
      "Sopralluogo speditivo VVF/Comune" : "null",
      "STRUTTURALE" : "null",
      "Tipo danno" : "Aiuto Signora anziana allettata",
      "Comune" : "Pozzuoli"
    },
    "geometry" : {
      "type" : "Point",
      "coordinates" : [ 14.0888346, 40.8479177 ]
    }
  }, {
    "type" : "Feature",
    "properties" : {
      "N." : "35",
      "Indirizzo" : "Via Alfonso Artiaco, 39",
      "Sopralluogo speditivo VVF/Comune" : "null",
      "STRUTTURALE" : "S",
      "Tipo danno" : "Pareti lesionate",
      "Comune" : "Pozzuoli"
    },
    "geometry" : {
      "type" : "Point",
      "coordinates" : [ 14.115788, 40.8330954 ]
    }
  }, {
    "type" : "Feature",
    "properties" : {
      "N." : "36",
      "Indirizzo" : "Via Spezzata Tranvai,4",
      "Sopralluogo speditivo VVF/Comune" : "null",
      "STRUTTURALE" : "S",
      "Tipo danno" : "Pareti lesionate",
      "Comune" : "Pozzuoli"
    },
    "geometry" : {
      "type" : "Point",
      "coordinates" : [ 14.12419, 40.8218824 ]
    }
  }, {
    "type" : "Feature",
    "properties" : {
      "N." : "37",
      "Indirizzo" : "Via Montenuovo Licola Patria,90",
      "Sopralluogo speditivo VVF/Comune" : "null",
      "STRUTTURALE" : "S",
      "Tipo danno" : "Crepe",
      "Comune" : "Pozzuoli"
    },
    "geometry" : {
      "type" : "Point",
      "coordinates" : [ 14.0952149, 40.8399091 ]
    }
  }, {
    "type" : "Feature",
    "properties" : {
      "N." : "38",
      "Indirizzo" : "Via Cofanara",
      "Sopralluogo speditivo VVF/Comune" : "null",
      "STRUTTURALE" : "S",
      "Tipo danno" : "Crepe",
      "Comune" : "Pozzuoli"
    },
    "geometry" : {
      "type" : "Point",
      "coordinates" : [ 14.1303885, 40.8461962 ]
    }
  }, {
    "type" : "Feature",
    "properties" : {
      "N." : "39",
      "Indirizzo" : "Largo Lucio Cocceio, 25",
      "Sopralluogo speditivo VVF/Comune" : "null",
      "STRUTTURALE" : "S",
      "Tipo danno" : "Lesioni Pareti",
      "Comune" : "Pozzuoli"
    },
    "geometry" : {
      "type" : "Point",
      "coordinates" : [ 14.0929968, 40.8465196 ]
    }
  }, {
    "type" : "Feature",
    "properties" : {
      "N." : "40",
      "Indirizzo" : "Via marco Aurelio, 31",
      "Sopralluogo speditivo VVF/Comune" : "null",
      "STRUTTURALE" : "null",
      "Tipo danno" : "Assistenza per la notte",
      "Comune" : "Pozzuoli"
    },
    "geometry" : {
      "type" : "Point",
      "coordinates" : [ 14.0958636, 40.8458051 ]
    }
  }, {
    "type" : "Feature",
    "properties" : {
      "N." : "41",
      "Indirizzo" : "Corso N. Terracciano, 9",
      "Sopralluogo speditivo VVF/Comune" : "null",
      "STRUTTURALE" : "S",
      "Tipo danno" : "Lesioni",
      "Comune" : "Pozzuoli"
    },
    "geometry" : {
      "type" : "Point",
      "coordinates" : [ 14.1214069, 40.8298233 ]
    }
  }, {
    "type" : "Feature",
    "properties" : {
      "N." : "42",
      "Indirizzo" : "Viale Degli Imperatori, 12c",
      "Sopralluogo speditivo VVF/Comune" : "null",
      "STRUTTURALE" : "null",
      "Tipo danno" : "Assistenza Notte",
      "Comune" : "Pozzuoli"
    },
    "geometry" : {
      "type" : "Point",
      "coordinates" : [ 14.0961766, 40.8405618 ]
    }
  }, {
    "type" : "Feature",
    "properties" : {
      "N." : "43",
      "Indirizzo" : "Via Tripergola, 38",
      "Sopralluogo speditivo VVF/Comune" : "null",
      "STRUTTURALE" : "null",
      "Tipo danno" : "Aiuto persona operata non autonoma",
      "Comune" : "Pozzuoli"
    },
    "geometry" : {
      "type" : "Point",
      "coordinates" : [ 14.085511, 40.8308391 ]
    }
  }, {
    "type" : "Feature",
    "properties" : {
      "N." : "44",
      "Indirizzo" : "Via Cesare Augusto, 7",
      "Sopralluogo speditivo VVF/Comune" : "null",
      "STRUTTURALE" : "null",
      "Tipo danno" : "Anziana da accudire",
      "Comune" : "Pozzuoli"
    },
    "geometry" : {
      "type" : "Point",
      "coordinates" : [ 14.119368, 40.82262559999999 ]
    }
  }, {
    "type" : "Feature",
    "properties" : {
      "N." : "45",
      "Indirizzo" : "Via R. Annecchino, 204",
      "Sopralluogo speditivo VVF/Comune" : "null",
      "STRUTTURALE" : "null",
      "Tipo danno" : "Anziana da accudire",
      "Comune" : "Pozzuoli"
    },
    "geometry" : {
      "type" : "Point",
      "coordinates" : [ 14.1046406, 40.8342191 ]
    }
  }, {
    "type" : "Feature",
    "properties" : {
      "N." : "46",
      "Indirizzo" : "Ottava traversa Campiglione,1",
      "Sopralluogo speditivo VVF/Comune" : "null",
      "STRUTTURALE" : "null",
      "Tipo danno" : "Assistenza persona anziana",
      "Comune" : "Pozzuoli"
    },
    "geometry" : {
      "type" : "Point",
      "coordinates" : [ 14.1140635, 40.8534622 ]
    }
  }, {
    "type" : "Feature",
    "properties" : {
      "N." : "47",
      "Indirizzo" : "Via Toiano, 5",
      "Sopralluogo speditivo VVF/Comune" : "null",
      "STRUTTURALE" : "null",
      "Tipo danno" : "Assistenza persona anziana",
      "Comune" : "Pozzuoli"
    },
    "geometry" : {
      "type" : "Point",
      "coordinates" : [ 14.0874508, 40.8441171 ]
    }
  }, {
    "type" : "Feature",
    "properties" : {
      "N." : "48",
      "Indirizzo" : "Travesa solfatara 8/b",
      "Sopralluogo speditivo VVF/Comune" : "null",
      "STRUTTURALE" : "S",
      "Tipo danno" : "Lesione parete",
      "Comune" : "Pozzuoli"
    },
    "geometry" : {
      "type" : "Point",
      "coordinates" : [ 14.131296, 40.83021290000001 ]
    }
  }, {
    "type" : "Feature",
    "properties" : {
      "N." : "49",
      "Indirizzo" : "Via Solfatara 18/A",
      "Sopralluogo speditivo VVF/Comune" : "null",
      "STRUTTURALE" : "null",
      "Tipo danno" : "Assistenza Anziani",
      "Comune" : "Pozzuoli"
    },
    "geometry" : {
      "type" : "Point",
      "coordinates" : [ 14.1275935, 40.8272077 ]
    }
  }, {
    "type" : "Feature",
    "properties" : {
      "N." : "50",
      "Indirizzo" : "Seconda traversa Luciano,6",
      "Sopralluogo speditivo VVF/Comune" : "null",
      "STRUTTURALE" : "S",
      "Tipo danno" : "Lesioni in vari ambienti",
      "Comune" : "Pozzuoli"
    },
    "geometry" : {
      "type" : "Point",
      "coordinates" : [ 14.1103647, 40.8344677 ]
    }
  }, {
    "type" : "Feature",
    "properties" : {
      "N." : "51",
      "Indirizzo" : "Via Toiano, 4 - P.co Garden Village",
      "Sopralluogo speditivo VVF/Comune" : "null",
      "STRUTTURALE" : "S",
      "Tipo danno" : "Spaccature - lesioni",
      "Comune" : "Pozzuoli"
    },
    "geometry" : {
      "type" : "Point",
      "coordinates" : [ 14.0897274, 40.8413011 ]
    }
  }, {
    "type" : "Feature",
    "properties" : {
      "N." : "52",
      "Indirizzo" : "Via Rosini, 12/B",
      "Sopralluogo speditivo VVF/Comune" : "null",
      "STRUTTURALE" : "S",
      "Tipo danno" : "Spaccature - lesioni varie",
      "Comune" : "Pozzuoli"
    },
    "geometry" : {
      "type" : "Point",
      "coordinates" : [ 14.1251093, 40.8234698 ]
    }
  }, {
    "type" : "Feature",
    "properties" : {
      "N." : "53",
      "Indirizzo" : "Via R. Annecchino, 69",
      "Sopralluogo speditivo VVF/Comune" : "null",
      "STRUTTURALE" : "S",
      "Tipo danno" : "Spaccature - lesioni",
      "Comune" : "Pozzuoli"
    },
    "geometry" : {
      "type" : "Point",
      "coordinates" : [ 14.1037482, 40.8341213 ]
    }
  }, {
    "type" : "Feature",
    "properties" : {
      "N." : "54",
      "Indirizzo" : "Condominio, viale Aranci 5-12",
      "Sopralluogo speditivo VVF/Comune" : "null",
      "STRUTTURALE" : "S",
      "Tipo danno" : "Lesioni interne/esterne",
      "Comune" : "Pozzuoli"
    },
    "geometry" : {
      "type" : "Point",
      "coordinates" : [ 14.1266902, 40.8294124 ]
    }
  }, {
    "type" : "Feature",
    "properties" : {
      "N." : "55",
      "Indirizzo" : "Viale Bognar, 31-47; 26-63",
      "Sopralluogo speditivo VVF/Comune" : "null",
      "STRUTTURALE" : "S",
      "Tipo danno" : "Lesioni interne/esterne",
      "Comune" : "Pozzuoli"
    },
    "geometry" : {
      "type" : "Point",
      "coordinates" : [ 14.1269262, 40.8287013 ]
    }
  }, {
    "type" : "Feature",
    "properties" : {
      "N." : "56",
      "Indirizzo" : "Via Giacomo Contessa 14",
      "Sopralluogo speditivo VVF/Comune" : "null",
      "STRUTTURALE" : "S",
      "Tipo danno" : "Crepe pareti crollo soffitto",
      "Comune" : "Pozzuoli"
    },
    "geometry" : {
      "type" : "Point",
      "coordinates" : [ 14.1326136, 40.8216317 ]
    }
  }, {
    "type" : "Feature",
    "properties" : {
      "N." : "57",
      "Indirizzo" : "Via Vecchia delle Vigne 26 A",
      "Sopralluogo speditivo VVF/Comune" : "null",
      "STRUTTURALE" : "S",
      "Tipo danno" : "crepe interne ed esterne",
      "Comune" : "Pozzuoli"
    },
    "geometry" : {
      "type" : "Point",
      "coordinates" : [ 14.1319803, 40.83071169999999 ]
    }
  }, {
    "type" : "Feature",
    "properties" : {
      "N." : "58",
      "Indirizzo" : "Via Lucilio 5",
      "Sopralluogo speditivo VVF/Comune" : "null",
      "STRUTTURALE" : "null",
      "Tipo danno" : "Assistenza anziano con disabilità e 2 bambini disabili",
      "Comune" : "Pozzuoli"
    },
    "geometry" : {
      "type" : "Point",
      "coordinates" : [ 14.0862872, 40.8424032 ]
    }
  }, {
    "type" : "Feature",
    "properties" : {
      "N." : "59",
      "Indirizzo" : "Via Solfatara 101 c",
      "Sopralluogo speditivo VVF/Comune" : "null",
      "STRUTTURALE" : "S",
      "Tipo danno" : "Caduta intonaco e crepe cemento",
      "Comune" : "Pozzuoli"
    },
    "geometry" : {
      "type" : "Point",
      "coordinates" : [ 14.1315259, 40.829421 ]
    }
  }, {
    "type" : "Feature",
    "properties" : {
      "N." : "60",
      "Indirizzo" : "Via Coste d'Agnano, II Traversa, 86",
      "Sopralluogo speditivo VVF/Comune" : "null",
      "STRUTTURALE" : "null",
      "Tipo danno" : "Alloggio per famiglia con 3 bambini",
      "Comune" : "Pozzuoli"
    },
    "geometry" : {
      "type" : "Point",
      "coordinates" : [ 14.1355313, 40.8297209 ]
    }
  }, {
    "type" : "Feature",
    "properties" : {
      "N." : "61",
      "Indirizzo" : "Viale Campi Flegrei",
      "Sopralluogo speditivo VVF/Comune" : "null",
      "STRUTTURALE" : "S",
      "Tipo danno" : "Impalcatura pericolante",
      "Comune" : "Pozzuoli"
    },
    "geometry" : {
      "type" : "Point",
      "coordinates" : [ 14.1098241, 40.8340778 ]
    }
  }, {
    "type" : "Feature",
    "properties" : {
      "N." : "62",
      "Indirizzo" : "Via Brancati,9",
      "Sopralluogo speditivo VVF/Comune" : "null",
      "STRUTTURALE" : "null",
      "Tipo danno" : "Assistenza figlio disabile all'allontanamento da casa",
      "Comune" : "Pozzuoli"
    },
    "geometry" : {
      "type" : "Point",
      "coordinates" : [ 14.0827684, 40.8779928 ]
    }
  }, {
    "type" : "Feature",
    "properties" : {
      "N." : "63",
      "Indirizzo" : "Via G. Parini, 22",
      "Sopralluogo speditivo VVF/Comune" : "null",
      "STRUTTURALE" : "null",
      "Tipo danno" : "Assistenza per la notte/ Segnalazione mancanza rete internet in zona",
      "Comune" : "Pozzuoli"
    },
    "geometry" : {
      "type" : "Point",
      "coordinates" : [ 14.0828612, 40.8757488 ]
    }
  }, {
    "type" : "Feature",
    "properties" : {
      "N." : "64",
      "Indirizzo" : "Via solfatara, 101 c.1 - Parco di Bonito",
      "Sopralluogo speditivo VVF/Comune" : "null",
      "STRUTTURALE" : "S",
      "Tipo danno" : "Lesioni gravi interne ed esterne",
      "Comune" : "Pozzuoli"
    },
    "geometry" : {
      "type" : "Point",
      "coordinates" : [ 14.1315259, 40.829421 ]
    }
  }, {
    "type" : "Feature",
    "properties" : {
      "N." : "65",
      "Indirizzo" : "Via Vecchia delle vigne, 30",
      "Sopralluogo speditivo VVF/Comune" : "null",
      "STRUTTURALE" : "S",
      "Tipo danno" : "Lesioni gravi interne ed esterne",
      "Comune" : "Pozzuoli"
    },
    "geometry" : {
      "type" : "Point",
      "coordinates" : [ 14.1316265, 40.8306134 ]
    }
  }, {
    "type" : "Feature",
    "properties" : {
      "N." : "66",
      "Indirizzo" : "Via Vecchia San Gennaro, 153G",
      "Sopralluogo speditivo VVF/Comune" : "null",
      "STRUTTURALE" : "S",
      "Tipo danno" : "Lesioni passanti dall'interno all'esterno",
      "Comune" : "Pozzuoli"
    },
    "geometry" : {
      "type" : "Point",
      "coordinates" : [ 14.1318195, 40.8248687 ]
    }
  }, {
    "type" : "Feature",
    "properties" : {
      "N." : "67",
      "Indirizzo" : "Via Carlo Rosini",
      "Sopralluogo speditivo VVF/Comune" : "null",
      "STRUTTURALE" : "null",
      "Tipo danno" : "problema di deambulazione",
      "Comune" : "Pozzuoli"
    },
    "geometry" : {
      "type" : "Point",
      "coordinates" : [ 14.1253332, 40.8239052 ]
    }
  }, {
    "type" : "Feature",
    "properties" : {
      "N." : "68",
      "Indirizzo" : "Rione Toiano - Case Parcheggio c/o centro sociale",
      "Sopralluogo speditivo VVF/Comune" : "null",
      "STRUTTURALE" : "null",
      "Tipo danno" : "Assistenza a bambini e anziani disabili",
      "Comune" : "Pozzuoli"
    },
    "geometry" : {
      "type" : "Point",
      "coordinates" : [ 14.0889071, 40.8423597 ]
    }
  }, {
    "type" : "Feature",
    "properties" : {
      "N." : "69",
      "Indirizzo" : "Via Girone, 52",
      "Sopralluogo speditivo VVF/Comune" : "null",
      "STRUTTURALE" : "S",
      "Tipo danno" : "Forte perdita d'acqua",
      "Comune" : "Pozzuoli"
    },
    "geometry" : {
      "type" : "Point",
      "coordinates" : [ 14.1260409, 40.8268524 ]
    }
  }, {
    "type" : "Feature",
    "properties" : {
      "N." : "70",
      "Indirizzo" : "Via Alfonso Artiaco, 172",
      "Sopralluogo speditivo VVF/Comune" : "null",
      "STRUTTURALE" : "S",
      "Tipo danno" : "Caduta calcinacci",
      "Comune" : "Pozzuoli"
    },
    "geometry" : {
      "type" : "Point",
      "coordinates" : [ 14.1160995, 40.8364858 ]
    }
  }, {
    "type" : "Feature",
    "properties" : {
      "N." : "71",
      "Indirizzo" : "Via Alfonso Artiaco, 198",
      "Sopralluogo speditivo VVF/Comune" : "null",
      "STRUTTURALE" : "S",
      "Tipo danno" : "Lesioni",
      "Comune" : "Pozzuoli"
    },
    "geometry" : {
      "type" : "Point",
      "coordinates" : [ 14.1162301, 40.8372077 ]
    }
  }, {
    "type" : "Feature",
    "properties" : {
      "N." : "72",
      "Indirizzo" : "Via Cicerone c/o chiesa s. Michele",
      "Sopralluogo speditivo VVF/Comune" : "null",
      "STRUTTURALE" : "null",
      "Tipo danno" : "Bagno chimico",
      "Comune" : "Pozzuoli"
    },
    "geometry" : {
      "type" : "Point",
      "coordinates" : [ 14.0892573, 40.8452348 ]
    }
  }, {
    "type" : "Feature",
    "properties" : {
      "N." : "73",
      "Indirizzo" : "Via Vigna, 58",
      "Sopralluogo speditivo VVF/Comune" : "null",
      "STRUTTURALE" : "S",
      "Tipo danno" : "Lesioni interne",
      "Comune" : "Pozzuoli"
    },
    "geometry" : {
      "type" : "Point",
      "coordinates" : [ 14.1299474, 40.8272242 ]
    }
  }, {
    "type" : "Feature",
    "properties" : {
      "N." : "74",
      "Indirizzo" : "Via A. Artiaco, 198",
      "Sopralluogo speditivo VVF/Comune" : "null",
      "STRUTTURALE" : "S",
      "Tipo danno" : "Lesione interne ed esterne",
      "Comune" : "Pozzuoli"
    },
    "geometry" : {
      "type" : "Point",
      "coordinates" : [ 14.1162301, 40.8372077 ]
    }
  }, {
    "type" : "Feature",
    "properties" : {
      "N." : "75",
      "Indirizzo" : "Via G. De Fraia, 11",
      "Sopralluogo speditivo VVF/Comune" : "null",
      "STRUTTURALE" : "S",
      "Tipo danno" : "Lesioni interne ed esterne - Assistenza bambino disabile (4 anni)",
      "Comune" : "Pozzuoli"
    },
    "geometry" : {
      "type" : "Point",
      "coordinates" : [ 14.1209399, 40.8229704 ]
    }
  }, {
    "type" : "Feature",
    "properties" : {
      "N." : "76",
      "Indirizzo" : "II Traversa angelo Compagnone, 1",
      "Sopralluogo speditivo VVF/Comune" : "null",
      "STRUTTURALE" : "S",
      "Tipo danno" : "Lesioni interne ed esterne - Assistenza 2 adulti disabili",
      "Comune" : "Pozzuoli"
    },
    "geometry" : {
      "type" : "Point",
      "coordinates" : [ 14.1252612, 40.8223124 ]
    }
  }, {
    "type" : "Feature",
    "properties" : {
      "N." : "77",
      "Indirizzo" : "IV Traversa Barletta, 19",
      "Sopralluogo speditivo VVF/Comune" : "null",
      "STRUTTURALE" : "S",
      "Tipo danno" : "Lesioni interne ed esterne",
      "Comune" : "Pozzuoli"
    },
    "geometry" : {
      "type" : "Point",
      "coordinates" : [ 14.128778, 40.821677 ]
    }
  }, {
    "type" : "Feature",
    "properties" : {
      "N." : "78",
      "Indirizzo" : "Traversa Solfatara, 5 - Parco D'Isanto",
      "Sopralluogo speditivo VVF/Comune" : "null",
      "STRUTTURALE" : "S",
      "Tipo danno" : "Pareti lesionate e tubo che perde",
      "Comune" : "Pozzuoli"
    },
    "geometry" : {
      "type" : "Point",
      "coordinates" : [ 14.1310748, 40.830024 ]
    }
  }, {
    "type" : "Feature",
    "properties" : {
      "N." : "79",
      "Indirizzo" : "Traversa Solfatara, 5 - Parco D'Isanto scala M",
      "Sopralluogo speditivo VVF/Comune" : "null",
      "STRUTTURALE" : "null",
      "Tipo danno" : "null",
      "Comune" : "Pozzuoli"
    },
    "geometry" : {
      "type" : "Point",
      "coordinates" : [ 14.1310748, 40.830024 ]
    }
  }, {
    "type" : "Feature",
    "properties" : {
      "N." : "80",
      "Indirizzo" : "Via Roma, 36",
      "Sopralluogo speditivo VVF/Comune" : "null",
      "STRUTTURALE" : "S",
      "Tipo danno" : "Pareti Lesionate",
      "Comune" : "Pozzuoli"
    },
    "geometry" : {
      "type" : "Point",
      "coordinates" : [ 14.119622, 40.8265886 ]
    }
  }, {
    "type" : "Feature",
    "properties" : {
      "N." : "81",
      "Indirizzo" : "Via Barretta, 1-10",
      "Sopralluogo speditivo VVF/Comune" : "null",
      "STRUTTURALE" : "S",
      "Tipo danno" : "Caduta calcinacci",
      "Comune" : "Pozzuoli"
    },
    "geometry" : {
      "type" : "Point",
      "coordinates" : [ 14.1085823, 40.8346487 ]
    }
  }, {
    "type" : "Feature",
    "properties" : {
      "N." : "82",
      "Indirizzo" : "Via Celle,2 - P.co Cicerone",
      "Sopralluogo speditivo VVF/Comune" : "null",
      "STRUTTURALE" : "S",
      "Tipo danno" : "Pareti lesionate",
      "Comune" : "Pozzuoli"
    },
    "geometry" : {
      "type" : "Point",
      "coordinates" : [ 14.1220091, 40.8303589 ]
    }
  }, {
    "type" : "Feature",
    "properties" : {
      "N." : "83",
      "Indirizzo" : "I Tracersa Privata Coste d'Agnano",
      "Sopralluogo speditivo VVF/Comune" : "null",
      "STRUTTURALE" : "S",
      "Tipo danno" : "Forte perdita d'acqua inizio viale - Pareti lesionate in tutta la palazzina",
      "Comune" : "Pozzuoli"
    },
    "geometry" : {
      "type" : "Point",
      "coordinates" : [ 14.137621, 40.8313937 ]
    }
  }, {
    "type" : "Feature",
    "properties" : {
      "N." : "84",
      "Indirizzo" : "Vecchia S. Gennaro, 143",
      "Sopralluogo speditivo VVF/Comune" : "null",
      "STRUTTURALE" : "S",
      "Tipo danno" : "Lesioni",
      "Comune" : "Pozzuoli"
    },
    "geometry" : {
      "type" : "Point",
      "coordinates" : [ 14.1301286, 40.824868 ]
    }
  }, {
    "type" : "Feature",
    "properties" : {
      "N." : "85",
      "Indirizzo" : "Via Sacchini, 6",
      "Sopralluogo speditivo VVF/Comune" : "null",
      "STRUTTURALE" : "S",
      "Tipo danno" : "lesioni interne ed esterne - distacco battiscopa",
      "Comune" : "Pozzuoli"
    },
    "geometry" : {
      "type" : "Point",
      "coordinates" : [ 14.1207118, 40.8269591 ]
    }
  }, {
    "type" : "Feature",
    "properties" : {
      "N." : "86",
      "Indirizzo" : "Corso Nicola Terracciano, 19 is.22",
      "Sopralluogo speditivo VVF/Comune" : "null",
      "STRUTTURALE" : "S",
      "Tipo danno" : "lesioni",
      "Comune" : "Pozzuoli"
    },
    "geometry" : {
      "type" : "Point",
      "coordinates" : [ 14.1210405, 40.8302976 ]
    }
  }, {
    "type" : "Feature",
    "properties" : {
      "N." : "87",
      "Indirizzo" : "Via Cofanara, 34",
      "Sopralluogo speditivo VVF/Comune" : "null",
      "STRUTTURALE" : "S",
      "Tipo danno" : "lesioni",
      "Comune" : "Pozzuoli"
    },
    "geometry" : {
      "type" : "Point",
      "coordinates" : [ 14.1284787, 40.8499828 ]
    }
  }, {
    "type" : "Feature",
    "properties" : {
      "N." : "88",
      "Indirizzo" : "Via Vecchia San gennaro, 29",
      "Sopralluogo speditivo VVF/Comune" : "null",
      "STRUTTURALE" : "S",
      "Tipo danno" : "lesioni solaio",
      "Comune" : "Pozzuoli"
    },
    "geometry" : {
      "type" : "Point",
      "coordinates" : [ 14.127252, 40.8248608 ]
    }
  }, {
    "type" : "Feature",
    "properties" : {
      "N." : "89",
      "Indirizzo" : "Via Serapide, 35",
      "Sopralluogo speditivo VVF/Comune" : "null",
      "STRUTTURALE" : "S",
      "Tipo danno" : "lesioni interno palazzo e vano scala",
      "Comune" : "Pozzuoli"
    },
    "geometry" : {
      "type" : "Point",
      "coordinates" : [ 14.120263, 40.826605 ]
    }
  }, {
    "type" : "Feature",
    "properties" : {
      "N." : "90",
      "Indirizzo" : "Corso Umberto I, 29",
      "Sopralluogo speditivo VVF/Comune" : "null",
      "STRUTTURALE" : "S",
      "Tipo danno" : "lesioni/caduta calcinacci",
      "Comune" : "Pozzuoli"
    },
    "geometry" : {
      "type" : "Point",
      "coordinates" : [ 14.125944, 40.821523 ]
    }
  }, {
    "type" : "Feature",
    "properties" : {
      "N." : "91",
      "Indirizzo" : "Via degli aranci - P.co Bono",
      "Sopralluogo speditivo VVF/Comune" : "null",
      "STRUTTURALE" : "S",
      "Tipo danno" : "Lesioni",
      "Comune" : "Pozzuoli"
    },
    "geometry" : {
      "type" : "Point",
      "coordinates" : [ 14.1270655, 40.8301539 ]
    }
  }, {
    "type" : "Feature",
    "properties" : {
      "N." : "92",
      "Indirizzo" : "Via Luciano, 50",
      "Sopralluogo speditivo VVF/Comune" : "null",
      "STRUTTURALE" : "S",
      "Tipo danno" : "Lesioni",
      "Comune" : "Pozzuoli"
    },
    "geometry" : {
      "type" : "Point",
      "coordinates" : [ 14.1149434, 40.8324251 ]
    }
  }, {
    "type" : "Feature",
    "properties" : {
      "N." : "93",
      "Indirizzo" : "Via Vecchia S. Gennaro, 120",
      "Sopralluogo speditivo VVF/Comune" : "null",
      "STRUTTURALE" : "S",
      "Tipo danno" : "Lesioni",
      "Comune" : "Pozzuoli"
    },
    "geometry" : {
      "type" : "Point",
      "coordinates" : [ 14.1345579, 40.826726 ]
    }
  }, {
    "type" : "Feature",
    "properties" : {
      "N." : "94",
      "Indirizzo" : "Via Vigna, 52",
      "Sopralluogo speditivo VVF/Comune" : "null",
      "STRUTTURALE" : "S",
      "Tipo danno" : "caduta intonaco / lesioni",
      "Comune" : "Pozzuoli"
    },
    "geometry" : {
      "type" : "Point",
      "coordinates" : [ 14.1297813, 40.826796 ]
    }
  }, {
    "type" : "Feature",
    "properties" : {
      "N." : "95",
      "Indirizzo" : "Via Serapide, 35",
      "Sopralluogo speditivo VVF/Comune" : "null",
      "STRUTTURALE" : "S",
      "Tipo danno" : "lesioni/caduta calcinacci",
      "Comune" : "Pozzuoli"
    },
    "geometry" : {
      "type" : "Point",
      "coordinates" : [ 14.120263, 40.826605 ]
    }
  }, {
    "type" : "Feature",
    "properties" : {
      "N." : "95",
      "Indirizzo" : "Via Giacinto Diano, 41",
      "Sopralluogo speditivo VVF/Comune" : "null",
      "STRUTTURALE" : "S",
      "Tipo danno" : "Lesioni",
      "Comune" : "Pozzuoli"
    },
    "geometry" : {
      "type" : "Point",
      "coordinates" : [ 14.1250583, 40.8292987 ]
    }
  }, {
    "type" : "Feature",
    "properties" : {
      "N." : "96",
      "Indirizzo" : "Traversa Maroder, 4",
      "Sopralluogo speditivo VVF/Comune" : "null",
      "STRUTTURALE" : "S",
      "Tipo danno" : "Lesioni",
      "Comune" : "Pozzuoli"
    },
    "geometry" : {
      "type" : "Point",
      "coordinates" : [ 14.1262593, 40.8264541 ]
    }
  }, {
    "type" : "Feature",
    "properties" : {
      "N." : "97",
      "Indirizzo" : "Via Oberdan,45",
      "Sopralluogo speditivo VVF/Comune" : "null",
      "STRUTTURALE" : "S",
      "Tipo danno" : "Lesioni/caduta calcinacci",
      "Comune" : "Pozzuoli"
    },
    "geometry" : {
      "type" : "Point",
      "coordinates" : [ 14.1224461, 40.8271222 ]
    }
  }, {
    "type" : "Feature",
    "properties" : {
      "N." : "98",
      "Indirizzo" : "Via Anfiteatro,3",
      "Sopralluogo speditivo VVF/Comune" : "null",
      "STRUTTURALE" : "S",
      "Tipo danno" : "Lesioni interne ed esterne",
      "Comune" : "Pozzuoli"
    },
    "geometry" : {
      "type" : "Point",
      "coordinates" : [ 14.1253117, 40.8250429 ]
    }
  }, {
    "type" : "Feature",
    "properties" : {
      "N." : "99",
      "Indirizzo" : "Via Solfatara p.co Cavaliere, 35",
      "Sopralluogo speditivo VVF/Comune" : "null",
      "STRUTTURALE" : "S",
      "Tipo danno" : "Lesioni interne ed esterne",
      "Comune" : "Pozzuoli"
    },
    "geometry" : {
      "type" : "Point",
      "coordinates" : [ 14.1370274, 40.8251354 ]
    }
  }, {
    "type" : "Feature",
    "properties" : {
      "N." : "100",
      "Indirizzo" : "Viale Villa Bianca,2",
      "Sopralluogo speditivo VVF/Comune" : "null",
      "STRUTTURALE" : "S",
      "Tipo danno" : "Lesioni",
      "Comune" : "Pozzuoli"
    },
    "geometry" : {
      "type" : "Point",
      "coordinates" : [ 14.1274046, 40.8282973 ]
    }
  }, {
    "type" : "Feature",
    "properties" : {
      "N." : "101",
      "Indirizzo" : "Via Solfatara, 37",
      "Sopralluogo speditivo VVF/Comune" : "null",
      "STRUTTURALE" : "S",
      "Tipo danno" : "Lesioni interne ed esterne",
      "Comune" : "Pozzuoli"
    },
    "geometry" : {
      "type" : "Point",
      "coordinates" : [ 14.128704, 40.8292071 ]
    }
  }, {
    "type" : "Feature",
    "properties" : {
      "N." : "102",
      "Indirizzo" : "Rione Solfatara II trav. Coste di Agnano 37",
      "Sopralluogo speditivo VVF/Comune" : "null",
      "STRUTTURALE" : "S",
      "Tipo danno" : "Lesioni interne ed esterne",
      "Comune" : "Pozzuoli"
    },
    "geometry" : {
      "type" : "Point",
      "coordinates" : [ 14.1398305, 40.8354396 ]
    }
  }, {
    "type" : "Feature",
    "properties" : {
      "N." : "103",
      "Indirizzo" : "II trav. Coste di Agnano, 30",
      "Sopralluogo speditivo VVF/Comune" : "null",
      "STRUTTURALE" : "S",
      "Tipo danno" : "lesioni",
      "Comune" : "Pozzuoli"
    },
    "geometry" : {
      "type" : "Point",
      "coordinates" : [ 14.1398305, 40.8354396 ]
    }
  }, {
    "type" : "Feature",
    "properties" : {
      "N." : "104",
      "Indirizzo" : "Via Vecchia delle Vigne , 28",
      "Sopralluogo speditivo VVF/Comune" : "null",
      "STRUTTURALE" : "S",
      "Tipo danno" : "Lesioni",
      "Comune" : "Pozzuoli"
    },
    "geometry" : {
      "type" : "Point",
      "coordinates" : [ 14.1314455, 40.8304929 ]
    }
  }, {
    "type" : "Feature",
    "properties" : {
      "N." : "105",
      "Indirizzo" : "Via Trav. Giacinto Diano, 7",
      "Sopralluogo speditivo VVF/Comune" : "null",
      "STRUTTURALE" : "S",
      "Tipo danno" : "lesioni",
      "Comune" : "Pozzuoli"
    },
    "geometry" : {
      "type" : "Point",
      "coordinates" : [ 14.1259411, 40.8288451 ]
    }
  }, {
    "type" : "Feature",
    "properties" : {
      "N." : "106",
      "Indirizzo" : "Via Traversa Giacinto Diano, 11",
      "Sopralluogo speditivo VVF/Comune" : "null",
      "STRUTTURALE" : "S",
      "Tipo danno" : "Lesioni",
      "Comune" : "Pozzuoli"
    },
    "geometry" : {
      "type" : "Point",
      "coordinates" : [ 14.126105, 40.8291156 ]
    }
  }, {
    "type" : "Feature",
    "properties" : {
      "N." : "107",
      "Indirizzo" : "Corso Terracciano, 61 (Ufficio P.T)",
      "Sopralluogo speditivo VVF/Comune" : "null",
      "STRUTTURALE" : "S",
      "Tipo danno" : "caduta calcinacci/crepa",
      "Comune" : "Pozzuoli"
    },
    "geometry" : {
      "type" : "Point",
      "coordinates" : [ 14.1239591, 40.82694000000001 ]
    }
  }, {
    "type" : "Feature",
    "properties" : {
      "N." : "108",
      "Indirizzo" : "Via Vecchie delle Vigne, 28/A",
      "Sopralluogo speditivo VVF/Comune" : "null",
      "STRUTTURALE" : "S",
      "Tipo danno" : "Lesioni su tutte le pareti",
      "Comune" : "Pozzuoli"
    },
    "geometry" : {
      "type" : "Point",
      "coordinates" : [ 14.1314455, 40.8304929 ]
    }
  }, {
    "type" : "Feature",
    "properties" : {
      "N." : "109",
      "Indirizzo" : "Via Vigna, 58",
      "Sopralluogo speditivo VVF/Comune" : "null",
      "STRUTTURALE" : "S",
      "Tipo danno" : "Struttura muratura, 2 piani ft, lesioni diffuse",
      "Comune" : "Pozzuoli"
    },
    "geometry" : {
      "type" : "Point",
      "coordinates" : [ 14.1299474, 40.8272242 ]
    }
  }, {
    "type" : "Feature",
    "properties" : {
      "N." : "110",
      "Indirizzo" : "Via Vecchia delle Vigna, 30",
      "Sopralluogo speditivo VVF/Comune" : "null",
      "STRUTTURALE" : "S",
      "Tipo danno" : "Lesione pilastri e tompagni",
      "Comune" : "Pozzuoli"
    },
    "geometry" : {
      "type" : "Point",
      "coordinates" : [ 14.1316265, 40.8306134 ]
    }
  }, {
    "type" : "Feature",
    "properties" : {
      "N." : "111",
      "Indirizzo" : "Via Vitaliano brancati, 9",
      "Sopralluogo speditivo VVF/Comune" : "null",
      "STRUTTURALE" : "S",
      "Tipo danno" : "Assitenza signora anziana allettata - Lesioni diffuse",
      "Comune" : "Pozzuoli"
    },
    "geometry" : {
      "type" : "Point",
      "coordinates" : [ 14.0827684, 40.8779928 ]
    }
  }, {
    "type" : "Feature",
    "properties" : {
      "N." : "112",
      "Indirizzo" : "Viale Villa Bianca,1",
      "Sopralluogo speditivo VVF/Comune" : "null",
      "STRUTTURALE" : "S",
      "Tipo danno" : "Lesioni alle tramezzature",
      "Comune" : "Pozzuoli"
    },
    "geometry" : {
      "type" : "Point",
      "coordinates" : [ 14.1272696, 40.828343 ]
    }
  }, {
    "type" : "Feature",
    "properties" : {
      "N." : "113",
      "Indirizzo" : "I Traversa P.co Bognar,6",
      "Sopralluogo speditivo VVF/Comune" : "null",
      "STRUTTURALE" : "S",
      "Tipo danno" : "Crepe diffuse interne ed esterne",
      "Comune" : "Pozzuoli"
    },
    "geometry" : {
      "type" : "Point",
      "coordinates" : [ 14.1274138, 40.8296799 ]
    }
  }, {
    "type" : "Feature",
    "properties" : {
      "N." : "114",
      "Indirizzo" : "Via G. Diano, 57",
      "Sopralluogo speditivo VVF/Comune" : "null",
      "STRUTTURALE" : "S",
      "Tipo danno" : "lesioni diffuse tramezzature",
      "Comune" : "Pozzuoli"
    },
    "geometry" : {
      "type" : "Point",
      "coordinates" : [ 14.1259559, 40.8285686 ]
    }
  }, {
    "type" : "Feature",
    "properties" : {
      "N." : "115",
      "Indirizzo" : "Via Solfatara, 101/B",
      "Sopralluogo speditivo VVF/Comune" : "null",
      "STRUTTURALE" : "S",
      "Tipo danno" : "Crepe verticali ed orizzontali in tutte le stanze",
      "Comune" : "Pozzuoli"
    },
    "geometry" : {
      "type" : "Point",
      "coordinates" : [ 14.1315259, 40.829421 ]
    }
  }, {
    "type" : "Feature",
    "properties" : {
      "N." : "116",
      "Indirizzo" : "Via Miliscola, 133 - P.co Caruso",
      "Sopralluogo speditivo VVF/Comune" : "null",
      "STRUTTURALE" : "S",
      "Tipo danno" : "crepa in un angolo importante, crepe al soffitto - Attività commerciale",
      "Comune" : "Pozzuoli"
    },
    "geometry" : {
      "type" : "Point",
      "coordinates" : [ 14.0980001, 40.8336744 ]
    }
  }, {
    "type" : "Feature",
    "properties" : {
      "N." : "117",
      "Indirizzo" : "Via G. Diano, 57",
      "Sopralluogo speditivo VVF/Comune" : "null",
      "STRUTTURALE" : "S",
      "Tipo danno" : "lesioni diffuse",
      "Comune" : "Pozzuoli"
    },
    "geometry" : {
      "type" : "Point",
      "coordinates" : [ 14.1259559, 40.8285686 ]
    }
  }, {
    "type" : "Feature",
    "properties" : {
      "N." : "118",
      "Indirizzo" : "Via Solfatara, 20 - Cremeria Azzurra",
      "Sopralluogo speditivo VVF/Comune" : "null",
      "STRUTTURALE" : "S",
      "Tipo danno" : "Lesioni diffuse - Attività commerciale",
      "Comune" : "Pozzuoli"
    },
    "geometry" : {
      "type" : "Point",
      "coordinates" : [ 14.127681, 40.8272704 ]
    }
  }, {
    "type" : "Feature",
    "properties" : {
      "N." : "119",
      "Indirizzo" : "Via Vecchia Campana, 28 - P.co De Luca",
      "Sopralluogo speditivo VVF/Comune" : "null",
      "STRUTTURALE" : "S",
      "Tipo danno" : "crepe sottili diffuse - richiesta verifica",
      "Comune" : "Pozzuoli"
    },
    "geometry" : {
      "type" : "Point",
      "coordinates" : [ 14.1198543, 40.8409599 ]
    }
  }, {
    "type" : "Feature",
    "properties" : {
      "N." : "120",
      "Indirizzo" : "Via Solfatara, 35 - P.co Cavaliere",
      "Sopralluogo speditivo VVF/Comune" : "null",
      "STRUTTURALE" : "S",
      "Tipo danno" : "Lesioni",
      "Comune" : "Pozzuoli"
    },
    "geometry" : {
      "type" : "Point",
      "coordinates" : [ 14.1282679, 40.8289163 ]
    }
  }, {
    "type" : "Feature",
    "properties" : {
      "N." : "121",
      "Indirizzo" : "Via C. Cappuccini, 10",
      "Sopralluogo speditivo VVF/Comune" : "null",
      "STRUTTURALE" : "S",
      "Tipo danno" : "Richiesta verifica al fabbricato",
      "Comune" : "Pozzuoli"
    },
    "geometry" : {
      "type" : "Point",
      "coordinates" : [ 14.1261128, 40.8220622 ]
    }
  }, {
    "type" : "Feature",
    "properties" : {
      "N." : "122",
      "Indirizzo" : "Via Alfonso Artiaco, 103",
      "Sopralluogo speditivo VVF/Comune" : "null",
      "STRUTTURALE" : "S",
      "Tipo danno" : "Lesione cassa scala, soffitto appartamento",
      "Comune" : "Pozzuoli"
    },
    "geometry" : {
      "type" : "Point",
      "coordinates" : [ 14.116688, 40.8399593 ]
    }
  }, {
    "type" : "Feature",
    "properties" : {
      "N." : "123",
      "Indirizzo" : "Viale degli Aranci, 17",
      "Sopralluogo speditivo VVF/Comune" : "null",
      "STRUTTURALE" : "S",
      "Tipo danno" : "Intonaco staccato, murature crepate, struttura in c.a.",
      "Comune" : "Pozzuoli"
    },
    "geometry" : {
      "type" : "Point",
      "coordinates" : [ 14.1271561, 40.8298969 ]
    }
  }, {
    "type" : "Feature",
    "properties" : {
      "N." : "124",
      "Indirizzo" : "C.so Nicola Terracciano, 42",
      "Sopralluogo speditivo VVF/Comune" : "null",
      "STRUTTURALE" : "S",
      "Tipo danno" : "Crepe muratura portante",
      "Comune" : "Pozzuoli"
    },
    "geometry" : {
      "type" : "Point",
      "coordinates" : [ 14.1237099, 40.8267077 ]
    }
  }, {
    "type" : "Feature",
    "properties" : {
      "N." : "125",
      "Indirizzo" : "Via Vigna, 78",
      "Sopralluogo speditivo VVF/Comune" : "null",
      "STRUTTURALE" : "S",
      "Tipo danno" : "Lievi lesioni in muratura",
      "Comune" : "Pozzuoli"
    },
    "geometry" : {
      "type" : "Point",
      "coordinates" : [ 14.1330814, 40.8277519 ]
    }
  }, {
    "type" : "Feature",
    "properties" : {
      "N." : "126",
      "Indirizzo" : "Via Pergolesi, 52",
      "Sopralluogo speditivo VVF/Comune" : "null",
      "STRUTTURALE" : "S",
      "Tipo danno" : "Lesioni sui piani",
      "Comune" : "Pozzuoli"
    },
    "geometry" : {
      "type" : "Point",
      "coordinates" : [ 14.1221866, 40.8259941 ]
    }
  }, {
    "type" : "Feature",
    "properties" : {
      "N." : "127",
      "Indirizzo" : "Via Oberdan, 37/A",
      "Sopralluogo speditivo VVF/Comune" : "null",
      "STRUTTURALE" : "S",
      "Tipo danno" : "Lesioni da taglio, fabb. In muratura",
      "Comune" : "Pozzuoli"
    },
    "geometry" : {
      "type" : "Point",
      "coordinates" : [ 14.1226736, 40.8268894 ]
    }
  }, {
    "type" : "Feature",
    "properties" : {
      "N." : "128",
      "Indirizzo" : "Via Alfonso Artiaco, 114",
      "Sopralluogo speditivo VVF/Comune" : "null",
      "STRUTTURALE" : "S",
      "Tipo danno" : "Lesioni interne ed esterne pilastri",
      "Comune" : "Pozzuoli"
    },
    "geometry" : {
      "type" : "Point",
      "coordinates" : [ 14.116276, 40.8334389 ]
    }
  }, {
    "type" : "Feature",
    "properties" : {
      "N." : "129",
      "Indirizzo" : "Traversa Solfatara, 11 - P.co D'Isanto",
      "Sopralluogo speditivo VVF/Comune" : "null",
      "STRUTTURALE" : "S",
      "Tipo danno" : "Lesioni interne",
      "Comune" : "Pozzuoli"
    },
    "geometry" : {
      "type" : "Point",
      "coordinates" : [ 14.135923, 40.8310055 ]
    }
  }, {
    "type" : "Feature",
    "properties" : {
      "N." : "130",
      "Indirizzo" : "Via Vecchia San Gennaro,107 - Parco Rocco",
      "Sopralluogo speditivo VVF/Comune" : "null",
      "STRUTTURALE" : "S",
      "Tipo danno" : "Lesioni interne ed esterne",
      "Comune" : "Pozzuoli"
    },
    "geometry" : {
      "type" : "Point",
      "coordinates" : [ 14.1286448, 40.8248548 ]
    }
  }, {
    "type" : "Feature",
    "properties" : {
      "N." : "131",
      "Indirizzo" : "Via R. Annecchino, 154",
      "Sopralluogo speditivo VVF/Comune" : "null",
      "STRUTTURALE" : "S",
      "Tipo danno" : "Lesioni su tutte le pareti",
      "Comune" : "Pozzuoli"
    },
    "geometry" : {
      "type" : "Point",
      "coordinates" : [ 14.1077105, 40.8341001 ]
    }
  }, {
    "type" : "Feature",
    "properties" : {
      "N." : "132",
      "Indirizzo" : "Via Vicinale Monte Barbaro, 51",
      "Sopralluogo speditivo VVF/Comune" : "null",
      "STRUTTURALE" : "S",
      "Tipo danno" : "Lesioni al solo soffitto",
      "Comune" : "Pozzuoli"
    },
    "geometry" : {
      "type" : "Point",
      "coordinates" : [ 14.1757514, 40.8658379 ]
    }
  }, {
    "type" : "Feature",
    "properties" : {
      "N." : "133",
      "Indirizzo" : "VII Angelo Compagnone, 5",
      "Sopralluogo speditivo VVF/Comune" : "null",
      "STRUTTURALE" : "S",
      "Tipo danno" : "Lesioni parte alta scala, interno abitazione solo intonaco caduto",
      "Comune" : "Pozzuoli"
    },
    "geometry" : {
      "type" : "Point",
      "coordinates" : [ 14.1248433, 40.8223335 ]
    }
  }, {
    "type" : "Feature",
    "properties" : {
      "N." : "134",
      "Indirizzo" : "VII Angelo Compagnone, 7",
      "Sopralluogo speditivo VVF/Comune" : "null",
      "STRUTTURALE" : "S",
      "Tipo danno" : "Lesioni esterne ed interne",
      "Comune" : "Pozzuoli"
    },
    "geometry" : {
      "type" : "Point",
      "coordinates" : [ 14.1248433, 40.8223335 ]
    }
  }, {
    "type" : "Feature",
    "properties" : {
      "N." : "135",
      "Indirizzo" : "Via Anfiteatro,3",
      "Sopralluogo speditivo VVF/Comune" : "null",
      "STRUTTURALE" : "S",
      "Tipo danno" : "Diffuse lesioni, porte bloccate, mattonelle cadute, calcinacci",
      "Comune" : "Pozzuoli"
    },
    "geometry" : {
      "type" : "Point",
      "coordinates" : [ 14.1253117, 40.8250429 ]
    }
  }, {
    "type" : "Feature",
    "properties" : {
      "N." : "136",
      "Indirizzo" : "Via Vigna, 68/a",
      "Sopralluogo speditivo VVF/Comune" : "null",
      "STRUTTURALE" : "S",
      "Tipo danno" : "Lesioni orizzontali e verticali e caduta calcinacci",
      "Comune" : "Pozzuoli"
    },
    "geometry" : {
      "type" : "Point",
      "coordinates" : [ 14.1324333, 40.8279522 ]
    }
  }, {
    "type" : "Feature",
    "properties" : {
      "N." : "137",
      "Indirizzo" : "Traversa G. Diano, 7",
      "Sopralluogo speditivo VVF/Comune" : "null",
      "STRUTTURALE" : "S",
      "Tipo danno" : "Intonaco  staccato e spaccature pareti, lesioni passanti",
      "Comune" : "Pozzuoli"
    },
    "geometry" : {
      "type" : "Point",
      "coordinates" : [ 14.1259411, 40.8288451 ]
    }
  }, {
    "type" : "Feature",
    "properties" : {
      "N." : "138",
      "Indirizzo" : "Via Solfatara, 91",
      "Sopralluogo speditivo VVF/Comune" : "null",
      "STRUTTURALE" : "S",
      "Tipo danno" : "Diffuse crepe - presenza di due bambini invalidi",
      "Comune" : "Pozzuoli"
    },
    "geometry" : {
      "type" : "Point",
      "coordinates" : [ 14.1308777, 40.829531 ]
    }
  }, {
    "type" : "Feature",
    "properties" : {
      "N." : "139",
      "Indirizzo" : "Via R. Annecchino, 218",
      "Sopralluogo speditivo VVF/Comune" : "null",
      "STRUTTURALE" : "S",
      "Tipo danno" : "Lesioni diffuse",
      "Comune" : "Pozzuoli"
    },
    "geometry" : {
      "type" : "Point",
      "coordinates" : [ 14.1031744, 40.8342783 ]
    }
  }, {
    "type" : "Feature",
    "properties" : {
      "N." : "140",
      "Indirizzo" : "Via Terracciano, 19 - Isolato 19",
      "Sopralluogo speditivo VVF/Comune" : "null",
      "STRUTTURALE" : "S",
      "Tipo danno" : "Lesioni muri portanti, caduta calcinacci",
      "Comune" : "Pozzuoli"
    },
    "geometry" : {
      "type" : "Point",
      "coordinates" : [ 14.1210405, 40.8302976 ]
    }
  }, {
    "type" : "Feature",
    "properties" : {
      "N." : "141",
      "Indirizzo" : "Via Artiaco, 70",
      "Sopralluogo speditivo VVF/Comune" : "null",
      "STRUTTURALE" : "S",
      "Tipo danno" : "Lesioni interne",
      "Comune" : "Pozzuoli"
    },
    "geometry" : {
      "type" : "Point",
      "coordinates" : [ 14.1164268, 40.8326931 ]
    }
  }, {
    "type" : "Feature",
    "properties" : {
      "N." : "142",
      "Indirizzo" : "Via Giacinto Diano, 57",
      "Sopralluogo speditivo VVF/Comune" : "null",
      "STRUTTURALE" : "S",
      "Tipo danno" : "Lesione interne, calcinacci",
      "Comune" : "Pozzuoli"
    },
    "geometry" : {
      "type" : "Point",
      "coordinates" : [ 14.1259559, 40.8285686 ]
    }
  }, {
    "type" : "Feature",
    "properties" : {
      "N." : "143",
      "Indirizzo" : "Traversa Pisano, 32",
      "Sopralluogo speditivo VVF/Comune" : "null",
      "STRUTTURALE" : "S",
      "Tipo danno" : "rampa privata",
      "Comune" : "Pozzuoli"
    },
    "geometry" : {
      "type" : "Point",
      "coordinates" : [ 14.1189001, 40.8320998 ]
    }
  }, {
    "type" : "Feature",
    "properties" : {
      "N." : "144",
      "Indirizzo" : "Via Vecchia delle Vigne, 20",
      "Sopralluogo speditivo VVF/Comune" : "null",
      "STRUTTURALE" : "S",
      "Tipo danno" : "Lesioni interne ed esterne",
      "Comune" : "Pozzuoli"
    },
    "geometry" : {
      "type" : "Point",
      "coordinates" : [ 14.1303892, 40.8300383 ]
    }
  }, {
    "type" : "Feature",
    "properties" : {
      "N." : "145",
      "Indirizzo" : "Via Bognar, 63",
      "Sopralluogo speditivo VVF/Comune" : "null",
      "STRUTTURALE" : "S",
      "Tipo danno" : "Lesioni esterne ed interne",
      "Comune" : "Pozzuoli"
    },
    "geometry" : {
      "type" : "Point",
      "coordinates" : [ 14.1282586, 40.8304453 ]
    }
  }, {
    "type" : "Feature",
    "properties" : {
      "N." : "146",
      "Indirizzo" : "Via coste d'Agnano, 78",
      "Sopralluogo speditivo VVF/Comune" : "null",
      "STRUTTURALE" : "S",
      "Tipo danno" : "Lesioni esterne ed interne",
      "Comune" : "Pozzuoli"
    },
    "geometry" : {
      "type" : "Point",
      "coordinates" : [ 14.138831, 40.8324227 ]
    }
  }, {
    "type" : "Feature",
    "properties" : {
      "N." : "147",
      "Indirizzo" : "Traversa Solfatara, 11 - P.co D'Isanto",
      "Sopralluogo speditivo VVF/Comune" : "null",
      "STRUTTURALE" : "S",
      "Tipo danno" : "Lesioni esterne ed interne, calcinacci",
      "Comune" : "Pozzuoli"
    },
    "geometry" : {
      "type" : "Point",
      "coordinates" : [ 14.135923, 40.8310055 ]
    }
  }, {
    "type" : "Feature",
    "properties" : {
      "N." : "148",
      "Indirizzo" : "Traversa Giacinto Diano,11",
      "Sopralluogo speditivo VVF/Comune" : "null",
      "STRUTTURALE" : "S",
      "Tipo danno" : "Lesioni esterne ed interne",
      "Comune" : "Pozzuoli"
    },
    "geometry" : {
      "type" : "Point",
      "coordinates" : [ 14.126105, 40.8291156 ]
    }
  }, {
    "type" : "Feature",
    "properties" : {
      "N." : "149",
      "Indirizzo" : "Via Vecchia San Gennaro, 42 - P.co del Pino",
      "Sopralluogo speditivo VVF/Comune" : "null",
      "STRUTTURALE" : "S",
      "Tipo danno" : "Lesioni esterne ed interne",
      "Comune" : "Pozzuoli"
    },
    "geometry" : {
      "type" : "Point",
      "coordinates" : [ 14.1269027, 40.8247948 ]
    }
  }, {
    "type" : "Feature",
    "properties" : {
      "N." : "150",
      "Indirizzo" : "Via Artiaco, I cavalcavia",
      "Sopralluogo speditivo VVF/Comune" : "null",
      "STRUTTURALE" : "S",
      "Tipo danno" : "Lesioni esterne ed interne",
      "Comune" : "Pozzuoli"
    },
    "geometry" : {
      "type" : "Point",
      "coordinates" : [ 14.1159912, 40.8367087 ]
    }
  }, {
    "type" : "Feature",
    "properties" : {
      "N." : "151",
      "Indirizzo" : "Via Pergolesi,40 - Direttissima 4",
      "Sopralluogo speditivo VVF/Comune" : "null",
      "STRUTTURALE" : "S",
      "Tipo danno" : "Lesioni esterne ed interne",
      "Comune" : "Pozzuoli"
    },
    "geometry" : {
      "type" : "Point",
      "coordinates" : [ 14.1218305, 40.825491 ]
    }
  }, {
    "type" : "Feature",
    "properties" : {
      "N." : "152",
      "Indirizzo" : "Corso Nicola Terracciano, 44",
      "Sopralluogo speditivo VVF/Comune" : "null",
      "STRUTTURALE" : "S",
      "Tipo danno" : "Lesioni varie",
      "Comune" : "Pozzuoli"
    },
    "geometry" : {
      "type" : "Point",
      "coordinates" : [ 14.1238852, 40.8266253 ]
    }
  }, {
    "type" : "Feature",
    "properties" : {
      "N." : "153",
      "Indirizzo" : "Dante Alighieri, 31",
      "Sopralluogo speditivo VVF/Comune" : "null",
      "STRUTTURALE" : "S",
      "Tipo danno" : "Lesioni esterne ed interne",
      "Comune" : "Pozzuoli"
    },
    "geometry" : {
      "type" : "Point",
      "coordinates" : [ 14.1227994, 40.8264279 ]
    }
  }, {
    "type" : "Feature",
    "properties" : {
      "N." : "154",
      "Indirizzo" : "Via Solfatara,35 - P.co Cavaliere - Sc.A",
      "Sopralluogo speditivo VVF/Comune" : "null",
      "STRUTTURALE" : "S",
      "Tipo danno" : "Lesioni varie",
      "Comune" : "Pozzuoli"
    },
    "geometry" : {
      "type" : "Point",
      "coordinates" : [ 14.1282679, 40.8289163 ]
    }
  }, {
    "type" : "Feature",
    "properties" : {
      "N." : "155",
      "Indirizzo" : "II Traversa Costa D'Agnano, 76",
      "Sopralluogo speditivo VVF/Comune" : "null",
      "STRUTTURALE" : "S",
      "Tipo danno" : "Lesioni varie",
      "Comune" : "Pozzuoli"
    },
    "geometry" : {
      "type" : "Point",
      "coordinates" : [ 14.138831, 40.8324227 ]
    }
  }, {
    "type" : "Feature",
    "properties" : {
      "N." : "156",
      "Indirizzo" : "II Traversa Costa D'Agnano, 76",
      "Sopralluogo speditivo VVF/Comune" : "null",
      "STRUTTURALE" : "S",
      "Tipo danno" : "Lesioni varie",
      "Comune" : "Pozzuoli"
    },
    "geometry" : {
      "type" : "Point",
      "coordinates" : [ 14.138831, 40.8324227 ]
    }
  }, {
    "type" : "Feature",
    "properties" : {
      "N." : "157",
      "Indirizzo" : "Via Artiaco, 31",
      "Sopralluogo speditivo VVF/Comune" : "null",
      "STRUTTURALE" : "S",
      "Tipo danno" : "Lesioni esterne ed interne",
      "Comune" : "Pozzuoli"
    },
    "geometry" : {
      "type" : "Point",
      "coordinates" : [ 14.1162608, 40.8325133 ]
    }
  }, {
    "type" : "Feature",
    "properties" : {
      "N." : "158",
      "Indirizzo" : "Via Solfatara, 91",
      "Sopralluogo speditivo VVF/Comune" : "null",
      "STRUTTURALE" : "S",
      "Tipo danno" : "Lesioni varie",
      "Comune" : "Pozzuoli"
    },
    "geometry" : {
      "type" : "Point",
      "coordinates" : [ 14.1308777, 40.829531 ]
    }
  }, {
    "type" : "Feature",
    "properties" : {
      "N." : "159",
      "Indirizzo" : "Via Giacinto diano, 27",
      "Sopralluogo speditivo VVF/Comune" : "null",
      "STRUTTURALE" : "S",
      "Tipo danno" : "Caduta calcinacci, palazzo in c.a. e lesioni alle scale",
      "Comune" : "Pozzuoli"
    },
    "geometry" : {
      "type" : "Point",
      "coordinates" : [ 14.1235772, 40.8281025 ]
    }
  }, {
    "type" : "Feature",
    "properties" : {
      "N." : "160",
      "Indirizzo" : "Rione Ortodonico, 17",
      "Sopralluogo speditivo VVF/Comune" : "null",
      "STRUTTURALE" : "S",
      "Tipo danno" : "Lesioni alle pareti, Intonaco caduto",
      "Comune" : "Pozzuoli"
    },
    "geometry" : {
      "type" : "Point",
      "coordinates" : [ 14.1289317, 40.8236205 ]
    }
  }, {
    "type" : "Feature",
    "properties" : {
      "N." : "161",
      "Indirizzo" : "Via Terracciano,19 - Isolato 11",
      "Sopralluogo speditivo VVF/Comune" : "null",
      "STRUTTURALE" : "S",
      "Tipo danno" : "Lesioni esterne ed interne",
      "Comune" : "Pozzuoli"
    },
    "geometry" : {
      "type" : "Point",
      "coordinates" : [ 14.1210405, 40.8302976 ]
    }
  }, {
    "type" : "Feature",
    "properties" : {
      "N." : "162",
      "Indirizzo" : "Via Quinto Fabio Massimo - SERVIZI SOCIALI",
      "Sopralluogo speditivo VVF/Comune" : "null",
      "STRUTTURALE" : "S",
      "Tipo danno" : "Crepe profonde aperte si vede anche dall' esterno",
      "Comune" : "Pozzuoli"
    },
    "geometry" : {
      "type" : "Point",
      "coordinates" : [ 14.0861428, 40.8457123 ]
    }
  }, {
    "type" : "Feature",
    "properties" : {
      "N." : "163",
      "Indirizzo" : "Via Tommaso Pollice",
      "Sopralluogo speditivo VVF/Comune" : "null",
      "STRUTTURALE" : "S",
      "Tipo danno" : "Lesione su tutta la parete con parato strappato",
      "Comune" : "Pozzuoli"
    },
    "geometry" : {
      "type" : "Point",
      "coordinates" : [ 14.09573, 40.83692 ]
    }
  }, {
    "type" : "Feature",
    "properties" : {
      "N." : "164",
      "Indirizzo" : "Via Girone, 38",
      "Sopralluogo speditivo VVF/Comune" : "null",
      "STRUTTURALE" : "S",
      "Tipo danno" : "Lesione alle murature",
      "Comune" : "Pozzuoli"
    },
    "geometry" : {
      "type" : "Point",
      "coordinates" : [ 14.1253862, 40.8271525 ]
    }
  }, {
    "type" : "Feature",
    "properties" : {
      "N." : "165",
      "Indirizzo" : "Via Giacinto Diano,42",
      "Sopralluogo speditivo VVF/Comune" : "null",
      "STRUTTURALE" : "S",
      "Tipo danno" : "Lesioni diffuse molto grandi",
      "Comune" : "Pozzuoli"
    },
    "geometry" : {
      "type" : "Point",
      "coordinates" : [ 14.1251778, 40.8292137 ]
    }
  }, {
    "type" : "Feature",
    "properties" : {
      "N." : "166",
      "Indirizzo" : "Via Solfatara,35",
      "Sopralluogo speditivo VVF/Comune" : "null",
      "STRUTTURALE" : "S",
      "Tipo danno" : "Lesioni palazzo anni 70",
      "Comune" : "Pozzuoli"
    },
    "geometry" : {
      "type" : "Point",
      "coordinates" : [ 14.1282679, 40.8289163 ]
    }
  }, {
    "type" : "Feature",
    "properties" : {
      "N." : "167",
      "Indirizzo" : "Via Pergolesi, 152",
      "Sopralluogo speditivo VVF/Comune" : "null",
      "STRUTTURALE" : "S",
      "Tipo danno" : "Crepe sulle pareti",
      "Comune" : "Pozzuoli"
    },
    "geometry" : {
      "type" : "Point",
      "coordinates" : [ 14.1203769, 40.8297956 ]
    }
  }, {
    "type" : "Feature",
    "properties" : {
      "N." : "168",
      "Indirizzo" : "Via Matteotti, 29",
      "Sopralluogo speditivo VVF/Comune" : "null",
      "STRUTTURALE" : "S",
      "Tipo danno" : "Lesione profonda su facciata e cassa scala",
      "Comune" : "Pozzuoli"
    },
    "geometry" : {
      "type" : "Point",
      "coordinates" : [ 14.1236098, 40.8213568 ]
    }
  }, {
    "type" : "Feature",
    "properties" : {
      "N." : "169",
      "Indirizzo" : "Via Dante Alighieri, 25",
      "Sopralluogo speditivo VVF/Comune" : "null",
      "STRUTTURALE" : "S",
      "Tipo danno" : "Lesione da sottitto a pavimento",
      "Comune" : "Pozzuoli"
    },
    "geometry" : {
      "type" : "Point",
      "coordinates" : [ 14.1231089, 40.8260106 ]
    }
  }, {
    "type" : "Feature",
    "properties" : {
      "N." : "170",
      "Indirizzo" : "Via Girone, 12",
      "Sopralluogo speditivo VVF/Comune" : "null",
      "STRUTTURALE" : "S",
      "Tipo danno" : "Crepe e porte del locale che non si chiudono. Cedimento strutturale",
      "Comune" : "Pozzuoli"
    },
    "geometry" : {
      "type" : "Point",
      "coordinates" : [ 14.1244832, 40.8272978 ]
    }
  }, {
    "type" : "Feature",
    "properties" : {
      "N." : "171",
      "Indirizzo" : "Corso N. Terracciano, 10",
      "Sopralluogo speditivo VVF/Comune" : "null",
      "STRUTTURALE" : "S",
      "Tipo danno" : "Lesioni vano scala",
      "Comune" : "Pozzuoli"
    },
    "geometry" : {
      "type" : "Point",
      "coordinates" : [ 14.1206183, 40.8302253 ]
    }
  }, {
    "type" : "Feature",
    "properties" : {
      "N." : "172",
      "Indirizzo" : "Via Girone, 26",
      "Sopralluogo speditivo VVF/Comune" : "null",
      "STRUTTURALE" : "S",
      "Tipo danno" : "Appartamento lesionato",
      "Comune" : "Pozzuoli"
    },
    "geometry" : {
      "type" : "Point",
      "coordinates" : [ 14.1256195, 40.8274613 ]
    }
  }, {
    "type" : "Feature",
    "properties" : {
      "N." : "173",
      "Indirizzo" : "Via Montenuovo Licola Patria, 63",
      "Sopralluogo speditivo VVF/Comune" : "null",
      "STRUTTURALE" : "S",
      "Tipo danno" : "Lesioni su struttura in tufo",
      "Comune" : "Pozzuoli"
    },
    "geometry" : {
      "type" : "Point",
      "coordinates" : [ 14.0956759, 40.8350959 ]
    }
  }, {
    "type" : "Feature",
    "properties" : {
      "N." : "174",
      "Indirizzo" : "Via San Gennaro Agnano, 20",
      "Sopralluogo speditivo VVF/Comune" : "null",
      "STRUTTURALE" : "S",
      "Tipo danno" : "Lesione su muratura in tufo e distacco marmi.",
      "Comune" : "Pozzuoli"
    },
    "geometry" : {
      "type" : "Point",
      "coordinates" : [ 14.1379975, 40.8230761 ]
    }
  }, {
    "type" : "Feature",
    "properties" : {
      "N." : "175",
      "Indirizzo" : "Via Celle, 17/D",
      "Sopralluogo speditivo VVF/Comune" : "null",
      "STRUTTURALE" : "S",
      "Tipo danno" : "Lesioni strutture in cemento armato",
      "Comune" : "Pozzuoli"
    },
    "geometry" : {
      "type" : "Point",
      "coordinates" : [ 14.1197753, 40.8315939 ]
    }
  }, {
    "type" : "Feature",
    "properties" : {
      "N." : "176",
      "Indirizzo" : "Via Catullo, 51",
      "Sopralluogo speditivo VVF/Comune" : "null",
      "STRUTTURALE" : "S",
      "Tipo danno" : "Assistenza disabile",
      "Comune" : "Pozzuoli"
    },
    "geometry" : {
      "type" : "Point",
      "coordinates" : [ 14.088071, 40.845467 ]
    }
  }, {
    "type" : "Feature",
    "properties" : {
      "N." : "177",
      "Indirizzo" : "Via Carlo Pisacane, 3",
      "Sopralluogo speditivo VVF/Comune" : "null",
      "STRUTTURALE" : "S",
      "Tipo danno" : "Palazzina sgomeberata - Persone sprovvisti di effetti personali",
      "Comune" : "Pozzuoli"
    },
    "geometry" : {
      "type" : "Point",
      "coordinates" : [ 14.1227612, 40.8252281 ]
    }
  }, {
    "type" : "Feature",
    "properties" : {
      "N." : "178",
      "Indirizzo" : "Via Oberdan, 16",
      "Sopralluogo speditivo VVF/Comune" : "null",
      "STRUTTURALE" : "S",
      "Tipo danno" : "Lesioni interne abitazioni",
      "Comune" : "Pozzuoli"
    },
    "geometry" : {
      "type" : "Point",
      "coordinates" : [ 14.1238051, 40.8262126 ]
    }
  }, {
    "type" : "Feature",
    "properties" : {
      "N." : "179",
      "Indirizzo" : "II Traversa Coste di Agnano",
      "Sopralluogo speditivo VVF/Comune" : "null",
      "STRUTTURALE" : "S",
      "Tipo danno" : "Lesioni interne mura portanti",
      "Comune" : "Pozzuoli"
    },
    "geometry" : {
      "type" : "Point",
      "coordinates" : [ 14.1398305, 40.8354396 ]
    }
  }, {
    "type" : "Feature",
    "properties" : {
      "N." : "180",
      "Indirizzo" : "Via Solfatara, 70 - Villa Cavaliere",
      "Sopralluogo speditivo VVF/Comune" : "null",
      "STRUTTURALE" : "S",
      "Tipo danno" : "Lesioni interne vano scala",
      "Comune" : "Pozzuoli"
    },
    "geometry" : {
      "type" : "Point",
      "coordinates" : [ 14.1328816, 40.82845640000001 ]
    }
  }, {
    "type" : "Feature",
    "properties" : {
      "N." : "181",
      "Indirizzo" : "Via Solfatara, 101/H",
      "Sopralluogo speditivo VVF/Comune" : "null",
      "STRUTTURALE" : "S",
      "Tipo danno" : "Lesione sui muri portanti",
      "Comune" : "Pozzuoli"
    },
    "geometry" : {
      "type" : "Point",
      "coordinates" : [ 14.1315259, 40.829421 ]
    }
  }, {
    "type" : "Feature",
    "properties" : {
      "N." : "182",
      "Indirizzo" : "Via Solfatara, 35",
      "Sopralluogo speditivo VVF/Comune" : "null",
      "STRUTTURALE" : "S",
      "Tipo danno" : "Lesioni interne abitazioni",
      "Comune" : "Pozzuoli"
    },
    "geometry" : {
      "type" : "Point",
      "coordinates" : [ 14.1282679, 40.8289163 ]
    }
  }, {
    "type" : "Feature",
    "properties" : {
      "N." : "183",
      "Indirizzo" : "Via Traversa Solfatara, 115 - scala L",
      "Sopralluogo speditivo VVF/Comune" : "null",
      "STRUTTURALE" : "S",
      "Tipo danno" : "Lesioni interne e caduta calcinacci",
      "Comune" : "Pozzuoli"
    },
    "geometry" : {
      "type" : "Point",
      "coordinates" : [ 14.1350055, 40.8310588 ]
    }
  }, {
    "type" : "Feature",
    "properties" : {
      "N." : "184",
      "Indirizzo" : "Via Solfatara, 101 - Parco Di Bonito",
      "Sopralluogo speditivo VVF/Comune" : "null",
      "STRUTTURALE" : "S",
      "Tipo danno" : "Caduta calcinacci interna palazzo",
      "Comune" : "Pozzuoli"
    },
    "geometry" : {
      "type" : "Point",
      "coordinates" : [ 14.1315259, 40.829421 ]
    }
  }, {
    "type" : "Feature",
    "properties" : {
      "N." : "185",
      "Indirizzo" : "Via Raimondo Annecchino, 154",
      "Sopralluogo speditivo VVF/Comune" : "null",
      "STRUTTURALE" : "S",
      "Tipo danno" : "Lesioni gravi interne ed esterne",
      "Comune" : "Pozzuoli"
    },
    "geometry" : {
      "type" : "Point",
      "coordinates" : [ 14.1077105, 40.8341001 ]
    }
  }, {
    "type" : "Feature",
    "properties" : {
      "N." : "186",
      "Indirizzo" : "Via Serapide, 11",
      "Sopralluogo speditivo VVF/Comune" : "null",
      "STRUTTURALE" : "S",
      "Tipo danno" : "Lesioni interne pilastri",
      "Comune" : "Pozzuoli"
    },
    "geometry" : {
      "type" : "Point",
      "coordinates" : [ 14.1200411, 40.8264996 ]
    }
  }, {
    "type" : "Feature",
    "properties" : {
      "N." : "187",
      "Indirizzo" : "Via Tobruk, 13",
      "Sopralluogo speditivo VVF/Comune" : "null",
      "STRUTTURALE" : "S",
      "Tipo danno" : "Lesioni interne",
      "Comune" : "Pozzuoli"
    },
    "geometry" : {
      "type" : "Point",
      "coordinates" : [ 14.1245587, 40.826934 ]
    }
  }, {
    "type" : "Feature",
    "properties" : {
      "N." : "188",
      "Indirizzo" : "II Traversa Coste D'Agnano, 78",
      "Sopralluogo speditivo VVF/Comune" : "null",
      "STRUTTURALE" : "S",
      "Tipo danno" : "Lesioni interne",
      "Comune" : "Pozzuoli"
    },
    "geometry" : {
      "type" : "Point",
      "coordinates" : [ 14.1359141, 40.8306239 ]
    }
  }, {
    "type" : "Feature",
    "properties" : {
      "N." : "189",
      "Indirizzo" : "Via Girone, 46/A",
      "Sopralluogo speditivo VVF/Comune" : "null",
      "STRUTTURALE" : "S",
      "Tipo danno" : "Lesioni interne",
      "Comune" : "Pozzuoli"
    },
    "geometry" : {
      "type" : "Point",
      "coordinates" : [ 14.1260336, 40.8268432 ]
    }
  }, {
    "type" : "Feature",
    "properties" : {
      "N." : "190",
      "Indirizzo" : "Via Giacinto Diano, 7",
      "Sopralluogo speditivo VVF/Comune" : "null",
      "STRUTTURALE" : "S",
      "Tipo danno" : "Lesioni interne",
      "Comune" : "Pozzuoli"
    },
    "geometry" : {
      "type" : "Point",
      "coordinates" : [ 14.1233312, 40.8276751 ]
    }
  }, {
    "type" : "Feature",
    "properties" : {
      "N." : "191",
      "Indirizzo" : "I Traversa Cappuccini, 6",
      "Sopralluogo speditivo VVF/Comune" : "null",
      "STRUTTURALE" : "S",
      "Tipo danno" : "Lesioni interne",
      "Comune" : "Pozzuoli"
    },
    "geometry" : {
      "type" : "Point",
      "coordinates" : [ 14.1257537, 40.8217412 ]
    }
  }, {
    "type" : "Feature",
    "properties" : {
      "N." : "192",
      "Indirizzo" : "Via Solfatara, 123/B",
      "Sopralluogo speditivo VVF/Comune" : "null",
      "STRUTTURALE" : "S",
      "Tipo danno" : "Lesioni interne ed esterne",
      "Comune" : "Pozzuoli"
    },
    "geometry" : {
      "type" : "Point",
      "coordinates" : [ 14.1329509, 40.8287749 ]
    }
  }, {
    "type" : "Feature",
    "properties" : {
      "N." : "193",
      "Indirizzo" : "Via Solfatara",
      "Sopralluogo speditivo VVF/Comune" : "null",
      "STRUTTURALE" : "S",
      "Tipo danno" : "Muro comunale vicino farmacia caduta pietre",
      "Comune" : "Pozzuoli"
    },
    "geometry" : {
      "type" : "Point",
      "coordinates" : [ 14.1370274, 40.8251354 ]
    }
  }, {
    "type" : "Feature",
    "properties" : {
      "N." : "194",
      "Indirizzo" : "Via Matteotti, 15",
      "Sopralluogo speditivo VVF/Comune" : "null",
      "STRUTTURALE" : "S",
      "Tipo danno" : "Lesioni interne",
      "Comune" : "Pozzuoli"
    },
    "geometry" : {
      "type" : "Point",
      "coordinates" : [ 14.1230252, 40.821406 ]
    }
  }, {
    "type" : "Feature",
    "properties" : {
      "N." : "195",
      "Indirizzo" : "Via Anfiteatro, 3",
      "Sopralluogo speditivo VVF/Comune" : "null",
      "STRUTTURALE" : "S",
      "Tipo danno" : "Lesioni interne su tramezzo e vano scala",
      "Comune" : "Pozzuoli"
    },
    "geometry" : {
      "type" : "Point",
      "coordinates" : [ 14.1253117, 40.8250429 ]
    }
  }, {
    "type" : "Feature",
    "properties" : {
      "N." : "196",
      "Indirizzo" : "Via Oberdan, 37/A",
      "Sopralluogo speditivo VVF/Comune" : "null",
      "STRUTTURALE" : "S",
      "Tipo danno" : "Lesioni interne ed esterne",
      "Comune" : "Pozzuoli"
    },
    "geometry" : {
      "type" : "Point",
      "coordinates" : [ 14.1226736, 40.8268894 ]
    }
  }, {
    "type" : "Feature",
    "properties" : {
      "N." : "197",
      "Indirizzo" : "Via Solfatara, 101 - P.co Di Bonito",
      "Sopralluogo speditivo VVF/Comune" : "null",
      "STRUTTURALE" : "S",
      "Tipo danno" : "Lesione interne abitazione",
      "Comune" : "Pozzuoli"
    },
    "geometry" : {
      "type" : "Point",
      "coordinates" : [ 14.1315259, 40.829421 ]
    }
  }, {
    "type" : "Feature",
    "properties" : {
      "N." : "198",
      "Indirizzo" : "Via Vicinale Cigliano, 20",
      "Sopralluogo speditivo VVF/Comune" : "null",
      "STRUTTURALE" : "S",
      "Tipo danno" : "Lesioni interne e calcinacci staccati dai muri perimetrali",
      "Comune" : "Pozzuoli"
    },
    "geometry" : {
      "type" : "Point",
      "coordinates" : [ 14.1263476, 40.8330111 ]
    }
  }, {
    "type" : "Feature",
    "properties" : {
      "N." : "199",
      "Indirizzo" : "Via Girone, 46/A",
      "Sopralluogo speditivo VVF/Comune" : "null",
      "STRUTTURALE" : "S",
      "Tipo danno" : "Perdita idrica - Tecnici sono intervenuti, ma persiste la perdita",
      "Comune" : "Pozzuoli"
    },
    "geometry" : {
      "type" : "Point",
      "coordinates" : [ 14.1260336, 40.8268432 ]
    }
  }, {
    "type" : "Feature",
    "properties" : {
      "N." : "200",
      "Indirizzo" : "Via Marino",
      "Sopralluogo speditivo VVF/Comune" : "null",
      "STRUTTURALE" : "S",
      "Tipo danno" : "Lesione interna",
      "Comune" : "Pozzuoli"
    },
    "geometry" : {
      "type" : "Point",
      "coordinates" : [ 14.1207494, 40.8250056 ]
    }
  }, {
    "type" : "Feature",
    "properties" : {
      "N." : "201",
      "Indirizzo" : "Via Savino Vitagliano, 11",
      "Sopralluogo speditivo VVF/Comune" : "null",
      "STRUTTURALE" : "S",
      "Tipo danno" : "Lesioni interne ed esterne",
      "Comune" : "Pozzuoli"
    },
    "geometry" : {
      "type" : "Point",
      "coordinates" : [ 14.1335012, 40.8211714 ]
    }
  }, {
    "type" : "Feature",
    "properties" : {
      "N." : "202",
      "Indirizzo" : "Viale bognar, 22",
      "Sopralluogo speditivo VVF/Comune" : "null",
      "STRUTTURALE" : "S",
      "Tipo danno" : "Crepe sui muri dell'appartamento",
      "Comune" : "Pozzuoli"
    },
    "geometry" : {
      "type" : "Point",
      "coordinates" : [ 14.1274966, 40.8290024 ]
    }
  }, {
    "type" : "Feature",
    "properties" : {
      "N." : "203",
      "Indirizzo" : "II Traversa Bognar, 1",
      "Sopralluogo speditivo VVF/Comune" : "null",
      "STRUTTURALE" : "S",
      "Tipo danno" : "Lesioni interne",
      "Comune" : "Pozzuoli"
    },
    "geometry" : {
      "type" : "Point",
      "coordinates" : [ 14.1274179, 40.8299328 ]
    }
  }, {
    "type" : "Feature",
    "properties" : {
      "N." : "204",
      "Indirizzo" : "Viale Bognar, 65",
      "Sopralluogo speditivo VVF/Comune" : "null",
      "STRUTTURALE" : "S",
      "Tipo danno" : "Caduta Calcinacci",
      "Comune" : "Pozzuoli"
    },
    "geometry" : {
      "type" : "Point",
      "coordinates" : [ 14.1283043, 40.8304681 ]
    }
  }, {
    "type" : "Feature",
    "properties" : {
      "N." : "205",
      "Indirizzo" : "Via Artiaco - Is. 5",
      "Sopralluogo speditivo VVF/Comune" : "null",
      "STRUTTURALE" : "S",
      "Tipo danno" : "Lesioni Vano scala - Scala I",
      "Comune" : "Pozzuoli"
    },
    "geometry" : {
      "type" : "Point",
      "coordinates" : [ 14.1159912, 40.8367087 ]
    }
  }, {
    "type" : "Feature",
    "properties" : {
      "N." : "206",
      "Indirizzo" : "Via Spezzata Tranvai, 14 - int.5",
      "Sopralluogo speditivo VVF/Comune" : "null",
      "STRUTTURALE" : "S",
      "Tipo danno" : "Muro con crepe",
      "Comune" : "Pozzuoli"
    },
    "geometry" : {
      "type" : "Point",
      "coordinates" : [ 14.1241984, 40.821867 ]
    }
  }, {
    "type" : "Feature",
    "properties" : {
      "N." : "207",
      "Indirizzo" : "Via Alfonso Artiaco, 114 - is.7 - Scala R",
      "Sopralluogo speditivo VVF/Comune" : "null",
      "STRUTTURALE" : "S",
      "Tipo danno" : "crepe interne ed esterne",
      "Comune" : "Pozzuoli"
    },
    "geometry" : {
      "type" : "Point",
      "coordinates" : [ 14.116276, 40.8334389 ]
    }
  }, {
    "type" : "Feature",
    "properties" : {
      "N." : "208",
      "Indirizzo" : "Via Celle, 15 - Secondo piano",
      "Sopralluogo speditivo VVF/Comune" : "null",
      "STRUTTURALE" : "S",
      "Tipo danno" : "crepe interne ed esterne",
      "Comune" : "Pozzuoli"
    },
    "geometry" : {
      "type" : "Point",
      "coordinates" : [ 14.1200242, 40.8320194 ]
    }
  }, {
    "type" : "Feature",
    "properties" : {
      "N." : "209",
      "Indirizzo" : "Via Celle, 15 - Primo Piano",
      "Sopralluogo speditivo VVF/Comune" : "null",
      "STRUTTURALE" : "S",
      "Tipo danno" : "Crepe Interne",
      "Comune" : "Pozzuoli"
    },
    "geometry" : {
      "type" : "Point",
      "coordinates" : [ 14.1200242, 40.8320194 ]
    }
  }, {
    "type" : "Feature",
    "properties" : {
      "N." : "210",
      "Indirizzo" : "Via Vecchia Campana, 68 - P.co De Luca",
      "Sopralluogo speditivo VVF/Comune" : "null",
      "STRUTTURALE" : "S",
      "Tipo danno" : "Parete Portante con lesione",
      "Comune" : "Pozzuoli"
    },
    "geometry" : {
      "type" : "Point",
      "coordinates" : [ 14.1182547, 40.8418323 ]
    }
  }, {
    "type" : "Feature",
    "properties" : {
      "N." : "211",
      "Indirizzo" : "Via Artiaco, 132",
      "Sopralluogo speditivo VVF/Comune" : "null",
      "STRUTTURALE" : "S",
      "Tipo danno" : "Varie crepe",
      "Comune" : "Pozzuoli"
    },
    "geometry" : {
      "type" : "Point",
      "coordinates" : [ 14.1159922, 40.83564760000001 ]
    }
  }, {
    "type" : "Feature",
    "properties" : {
      "N." : "212",
      "Indirizzo" : "Traversa Giacinto Diano, 7",
      "Sopralluogo speditivo VVF/Comune" : "null",
      "STRUTTURALE" : "S",
      "Tipo danno" : "Varie crepe interne",
      "Comune" : "Pozzuoli"
    },
    "geometry" : {
      "type" : "Point",
      "coordinates" : [ 14.1259411, 40.8288451 ]
    }
  }, {
    "type" : "Feature",
    "properties" : {
      "N." : "213",
      "Indirizzo" : "Via Solfatara, 101 -Palazzo Di Bonito",
      "Sopralluogo speditivo VVF/Comune" : "null",
      "STRUTTURALE" : "S",
      "Tipo danno" : "Lesioni vano Scala",
      "Comune" : "Pozzuoli"
    },
    "geometry" : {
      "type" : "Point",
      "coordinates" : [ 14.1315259, 40.829421 ]
    }
  }, {
    "type" : "Feature",
    "properties" : {
      "N." : "214",
      "Indirizzo" : "Viale Cappuccini, 10",
      "Sopralluogo speditivo VVF/Comune" : "null",
      "STRUTTURALE" : "S",
      "Tipo danno" : "Lesioni con caduta calcinacci sia interni che esterni",
      "Comune" : "Pozzuoli"
    },
    "geometry" : {
      "type" : "Point",
      "coordinates" : [ 14.1261128, 40.8220622 ]
    }
  }, {
    "type" : "Feature",
    "properties" : {
      "N." : "215",
      "Indirizzo" : "Via Vicinale Monte Barbaro 51 (traversa di via Artiaco)",
      "Sopralluogo speditivo VVF/Comune" : "null",
      "STRUTTURALE" : "S",
      "Tipo danno" : "Lesioni interne ed esterne",
      "Comune" : "Pozzuoli"
    },
    "geometry" : {
      "type" : "Point",
      "coordinates" : [ 14.1156632, 40.8335664 ]
    }
  }, {
    "type" : "Feature",
    "properties" : {
      "N." : "216",
      "Indirizzo" : "Cosro Umberto, 151/D",
      "Sopralluogo speditivo VVF/Comune" : "null",
      "STRUTTURALE" : "S",
      "Tipo danno" : "Lesioni interne ed esterne",
      "Comune" : "Pozzuoli"
    },
    "geometry" : {
      "type" : "Point",
      "coordinates" : [ 14.132377, 40.821012 ]
    }
  }, {
    "type" : "Feature",
    "properties" : {
      "N." : "217",
      "Indirizzo" : "P.co Olivetti, 19",
      "Sopralluogo speditivo VVF/Comune" : "null",
      "STRUTTURALE" : "S",
      "Tipo danno" : "Lesioni interne ed esterne",
      "Comune" : "Pozzuoli"
    },
    "geometry" : {
      "type" : "Point",
      "coordinates" : [ 14.1058909, 40.838549 ]
    }
  }, {
    "type" : "Feature",
    "properties" : {
      "N." : "218",
      "Indirizzo" : "Corso Nicola Terracciano, 67",
      "Sopralluogo speditivo VVF/Comune" : "null",
      "STRUTTURALE" : "S",
      "Tipo danno" : "Lesioni interne ed esterne",
      "Comune" : "Pozzuoli"
    },
    "geometry" : {
      "type" : "Point",
      "coordinates" : [ 14.1240484, 40.826829 ]
    }
  }, {
    "type" : "Feature",
    "properties" : {
      "N." : "219",
      "Indirizzo" : "Corso Nicola Terracciano, 67",
      "Sopralluogo speditivo VVF/Comune" : "null",
      "STRUTTURALE" : "S",
      "Tipo danno" : "Lesioni interne ed esterne",
      "Comune" : "Pozzuoli"
    },
    "geometry" : {
      "type" : "Point",
      "coordinates" : [ 14.1240484, 40.826829 ]
    }
  }, {
    "type" : "Feature",
    "properties" : {
      "N." : "220",
      "Indirizzo" : "Via Celle, 17/D",
      "Sopralluogo speditivo VVF/Comune" : "null",
      "STRUTTURALE" : "S",
      "Tipo danno" : "Lesioni interne ed esterne",
      "Comune" : "Pozzuoli"
    },
    "geometry" : {
      "type" : "Point",
      "coordinates" : [ 14.1197753, 40.8315939 ]
    }
  }, {
    "type" : "Feature",
    "properties" : {
      "N." : "221",
      "Indirizzo" : "II Traversa Coste D'Agnano - Rione Solfatara",
      "Sopralluogo speditivo VVF/Comune" : "null",
      "STRUTTURALE" : "S",
      "Tipo danno" : "Lesioni interne ed esterne",
      "Comune" : "Pozzuoli"
    },
    "geometry" : {
      "type" : "Point",
      "coordinates" : [ 14.1355313, 40.8297209 ]
    }
  }, {
    "type" : "Feature",
    "properties" : {
      "N." : "222",
      "Indirizzo" : "Via Vecchia San Gennaro, 143",
      "Sopralluogo speditivo VVF/Comune" : "null",
      "STRUTTURALE" : "S",
      "Tipo danno" : "Lesioni interne ed esterne",
      "Comune" : "Pozzuoli"
    },
    "geometry" : {
      "type" : "Point",
      "coordinates" : [ 14.1301286, 40.824868 ]
    }
  }, {
    "type" : "Feature",
    "properties" : {
      "N." : "223",
      "Indirizzo" : "Via Campi Flegrei, 68",
      "Sopralluogo speditivo VVF/Comune" : "null",
      "STRUTTURALE" : "S",
      "Tipo danno" : "Lesioni interne ed esterne",
      "Comune" : "Pozzuoli"
    },
    "geometry" : {
      "type" : "Point",
      "coordinates" : [ 14.0989573, 40.8346717 ]
    }
  }, {
    "type" : "Feature",
    "properties" : {
      "N." : "224",
      "Indirizzo" : "Via Solfatara. 101 - P.co Di Bonito",
      "Sopralluogo speditivo VVF/Comune" : "null",
      "STRUTTURALE" : "S",
      "Tipo danno" : "Lesioni interne ed esterne",
      "Comune" : "Pozzuoli"
    },
    "geometry" : {
      "type" : "Point",
      "coordinates" : [ 14.1315259, 40.829421 ]
    }
  }, {
    "type" : "Feature",
    "properties" : {
      "N." : "225",
      "Indirizzo" : "Via Pergolesi, 146",
      "Sopralluogo speditivo VVF/Comune" : "null",
      "STRUTTURALE" : "S",
      "Tipo danno" : "Lesioni interne ed esterne",
      "Comune" : "Pozzuoli"
    },
    "geometry" : {
      "type" : "Point",
      "coordinates" : [ 14.1204155, 40.8296562 ]
    }
  }, {
    "type" : "Feature",
    "properties" : {
      "N." : "226",
      "Indirizzo" : "Via Solfatara,8 - Sc.B",
      "Sopralluogo speditivo VVF/Comune" : "null",
      "STRUTTURALE" : "S",
      "Tipo danno" : "Lesioni interne",
      "Comune" : "Pozzuoli"
    },
    "geometry" : {
      "type" : "Point",
      "coordinates" : [ 14.1264707, 40.8255646 ]
    }
  }, {
    "type" : "Feature",
    "properties" : {
      "N." : "227",
      "Indirizzo" : "Via Girone, 38",
      "Sopralluogo speditivo VVF/Comune" : "null",
      "STRUTTURALE" : "S",
      "Tipo danno" : "Lesioni interne ed esterne",
      "Comune" : "Pozzuoli"
    },
    "geometry" : {
      "type" : "Point",
      "coordinates" : [ 14.1253862, 40.8271525 ]
    }
  }, {
    "type" : "Feature",
    "properties" : {
      "N." : "228",
      "Indirizzo" : "Traversa Solfatara, 8",
      "Sopralluogo speditivo VVF/Comune" : "null",
      "STRUTTURALE" : "S",
      "Tipo danno" : "Lesioni interne ed esterne",
      "Comune" : "Pozzuoli"
    },
    "geometry" : {
      "type" : "Point",
      "coordinates" : [ 14.131296, 40.83021290000001 ]
    }
  }, {
    "type" : "Feature",
    "properties" : {
      "N." : "229",
      "Indirizzo" : "Via Tommaso Pollice, Fabb. 21",
      "Sopralluogo speditivo VVF/Comune" : "null",
      "STRUTTURALE" : "S",
      "Tipo danno" : "Lesioni interne ed esterne",
      "Comune" : "Pozzuoli"
    },
    "geometry" : {
      "type" : "Point",
      "coordinates" : [ 14.09573, 40.83692 ]
    }
  }, {
    "type" : "Feature",
    "properties" : {
      "N." : "230",
      "Indirizzo" : "null",
      "Sopralluogo speditivo VVF/Comune" : "null",
      "STRUTTURALE" : "S",
      "Tipo danno" : "Lesioni interne ed esterne",
      "Comune" : "Pozzuoli"
    },
    "geometry" : {
      "type" : "Point",
      "coordinates" : [ 14.1085823, 40.8346487 ]
    }
  }, {
    "type" : "Feature",
    "properties" : {
      "N." : "231",
      "Indirizzo" : "Viale Bognar, 22",
      "Sopralluogo speditivo VVF/Comune" : "null",
      "STRUTTURALE" : "S",
      "Tipo danno" : "Lesioni interne ed esterne",
      "Comune" : "Pozzuoli"
    },
    "geometry" : {
      "type" : "Point",
      "coordinates" : [ 14.1274966, 40.8290024 ]
    }
  }, {
    "type" : "Feature",
    "properties" : {
      "N." : "232",
      "Indirizzo" : "Via Raimondo annecchino 154",
      "Sopralluogo speditivo VVF/Comune" : "null",
      "STRUTTURALE" : "S",
      "Tipo danno" : "crepe",
      "Comune" : "Pozzuoli"
    },
    "geometry" : {
      "type" : "Point",
      "coordinates" : [ 14.1077105, 40.8341001 ]
    }
  }, {
    "type" : "Feature",
    "properties" : {
      "N." : "233",
      "Indirizzo" : "corso terracciano isolato 22",
      "Sopralluogo speditivo VVF/Comune" : "null",
      "STRUTTURALE" : "S",
      "Tipo danno" : "lesioni muri portanti e tramezzi - già segnalato stanotte",
      "Comune" : "Pozzuoli"
    },
    "geometry" : {
      "type" : "Point",
      "coordinates" : [ 14.1226511, 40.8280412 ]
    }
  }, {
    "type" : "Feature",
    "properties" : {
      "N." : "234",
      "Indirizzo" : "via Fasano, 6",
      "Sopralluogo speditivo VVF/Comune" : "null",
      "STRUTTURALE" : "S",
      "Tipo danno" : "lesioni in appartamento",
      "Comune" : "Pozzuoli"
    },
    "geometry" : {
      "type" : "Point",
      "coordinates" : [ 14.1191994, 40.8274688 ]
    }
  }, {
    "type" : "Feature",
    "properties" : {
      "N." : "235",
      "Indirizzo" : "via Artiaco, 31",
      "Sopralluogo speditivo VVF/Comune" : "null",
      "STRUTTURALE" : "S",
      "Tipo danno" : "pareti lesionate",
      "Comune" : "Pozzuoli"
    },
    "geometry" : {
      "type" : "Point",
      "coordinates" : [ 14.1162608, 40.8325133 ]
    }
  }, {
    "type" : "Feature",
    "properties" : {
      "N." : "236",
      "Indirizzo" : "via Campi Flegrei, 78",
      "Sopralluogo speditivo VVF/Comune" : "null",
      "STRUTTURALE" : "S",
      "Tipo danno" : "caduta intonaco nel vano scala",
      "Comune" : "Pozzuoli"
    },
    "geometry" : {
      "type" : "Point",
      "coordinates" : [ 14.0982874, 40.8343052 ]
    }
  }, {
    "type" : "Feature",
    "properties" : {
      "N." : "237",
      "Indirizzo" : "via Traversa Pisano, 8",
      "Sopralluogo speditivo VVF/Comune" : "null",
      "STRUTTURALE" : "S",
      "Tipo danno" : "crepe nei muri divisori delle stanze",
      "Comune" : "Pozzuoli"
    },
    "geometry" : {
      "type" : "Point",
      "coordinates" : [ 14.1182952, 40.83216789999999 ]
    }
  }, {
    "type" : "Feature",
    "properties" : {
      "N." : "238",
      "Indirizzo" : "Traaversa Giacinto Diano, 42",
      "Sopralluogo speditivo VVF/Comune" : "null",
      "STRUTTURALE" : "S",
      "Tipo danno" : "crepe rilevanti interne ed esterne",
      "Comune" : "Pozzuoli"
    },
    "geometry" : {
      "type" : "Point",
      "coordinates" : [ 14.1263836, 40.8291414 ]
    }
  }, {
    "type" : "Feature",
    "properties" : {
      "N." : "239",
      "Indirizzo" : "via Vecchia san gennaro, 153/a",
      "Sopralluogo speditivo VVF/Comune" : "null",
      "STRUTTURALE" : "S",
      "Tipo danno" : "spaccate verticali tra n 2 stanze",
      "Comune" : "Pozzuoli"
    },
    "geometry" : {
      "type" : "Point",
      "coordinates" : [ 14.1318195, 40.8248687 ]
    }
  }, {
    "type" : "Feature",
    "properties" : {
      "N." : "240",
      "Indirizzo" : "via Vecchia San Gennaro, 101",
      "Sopralluogo speditivo VVF/Comune" : "null",
      "STRUTTURALE" : "S",
      "Tipo danno" : "lesioni",
      "Comune" : "Pozzuoli"
    },
    "geometry" : {
      "type" : "Point",
      "coordinates" : [ 14.1286151, 40.8248375 ]
    }
  }, {
    "type" : "Feature",
    "properties" : {
      "N." : "241",
      "Indirizzo" : "via Giacinto Diano, 43 interno 2",
      "Sopralluogo speditivo VVF/Comune" : "null",
      "STRUTTURALE" : "S",
      "Tipo danno" : "spaccati tramezzi appartamento",
      "Comune" : "Pozzuoli"
    },
    "geometry" : {
      "type" : "Point",
      "coordinates" : [ 14.1252164, 40.829245 ]
    }
  }, {
    "type" : "Feature",
    "properties" : {
      "N." : "242",
      "Indirizzo" : "via Tommaso Pollice, 3",
      "Sopralluogo speditivo VVF/Comune" : "null",
      "STRUTTURALE" : "S",
      "Tipo danno" : "lesione",
      "Comune" : "Pozzuoli"
    },
    "geometry" : {
      "type" : "Point",
      "coordinates" : [ 14.09573, 40.83692 ]
    }
  }, {
    "type" : "Feature",
    "properties" : {
      "N." : "243",
      "Indirizzo" : "viale dei Pini Nord, 5",
      "Sopralluogo speditivo VVF/Comune" : "null",
      "STRUTTURALE" : "S",
      "Tipo danno" : "lesioni",
      "Comune" : "Pozzuoli"
    },
    "geometry" : {
      "type" : "Point",
      "coordinates" : [ 14.0448986, 40.90664719999999 ]
    }
  }, {
    "type" : "Feature",
    "properties" : {
      "N." : "244",
      "Indirizzo" : "Condominio II traversa via Giacinto Diano, 10, 24 e 42",
      "Sopralluogo speditivo VVF/Comune" : "null",
      "STRUTTURALE" : "S",
      "Tipo danno" : "lesioni interne ed esterne",
      "Comune" : "Pozzuoli"
    },
    "geometry" : {
      "type" : "Point",
      "coordinates" : [ 14.1231961, 40.82743019999999 ]
    }
  }, {
    "type" : "Feature",
    "properties" : {
      "N." : "245",
      "Indirizzo" : "via Oberdan, 39",
      "Sopralluogo speditivo VVF/Comune" : "null",
      "STRUTTURALE" : "S",
      "Tipo danno" : "porta ingresso bloccata ed intonaco caduto",
      "Comune" : "Pozzuoli"
    },
    "geometry" : {
      "type" : "Point",
      "coordinates" : [ 14.1225379, 40.8270772 ]
    }
  }, {
    "type" : "Feature",
    "properties" : {
      "N." : "246",
      "Indirizzo" : "via Savino Vitagliano, 9/b",
      "Sopralluogo speditivo VVF/Comune" : "null",
      "STRUTTURALE" : "S",
      "Tipo danno" : "crepe aperte e caduta intonaco da balcone",
      "Comune" : "Pozzuoli"
    },
    "geometry" : {
      "type" : "Point",
      "coordinates" : [ 14.1335012, 40.8211714 ]
    }
  }, {
    "type" : "Feature",
    "properties" : {
      "N." : "247",
      "Indirizzo" : "via Sacchini, 14",
      "Sopralluogo speditivo VVF/Comune" : "null",
      "STRUTTURALE" : "S",
      "Tipo danno" : "grosse crepe su pavimento e apertura mura negli angoli",
      "Comune" : "Pozzuoli"
    },
    "geometry" : {
      "type" : "Point",
      "coordinates" : [ 14.1201702, 40.8270851 ]
    }
  }, {
    "type" : "Feature",
    "properties" : {
      "N." : "248",
      "Indirizzo" : "via Artiaco, 114",
      "Sopralluogo speditivo VVF/Comune" : "null",
      "STRUTTURALE" : "S",
      "Tipo danno" : "lesioni all'ingresso",
      "Comune" : "Pozzuoli"
    },
    "geometry" : {
      "type" : "Point",
      "coordinates" : [ 14.116276, 40.8334389 ]
    }
  }, {
    "type" : "Feature",
    "properties" : {
      "N." : "249",
      "Indirizzo" : "via Campi Flegrei, 40",
      "Sopralluogo speditivo VVF/Comune" : "null",
      "STRUTTURALE" : "S",
      "Tipo danno" : "lesioni in casa - bambina disabile in sedia a rotelle che vuole rientrare in casa",
      "Comune" : "Pozzuoli"
    },
    "geometry" : {
      "type" : "Point",
      "coordinates" : [ 14.1044093, 40.8353923 ]
    }
  }, {
    "type" : "Feature",
    "properties" : {
      "N." : "250",
      "Indirizzo" : "via Roma, 36",
      "Sopralluogo speditivo VVF/Comune" : "null",
      "STRUTTURALE" : "S",
      "Tipo danno" : "lesioni interne",
      "Comune" : "Pozzuoli"
    },
    "geometry" : {
      "type" : "Point",
      "coordinates" : [ 14.119622, 40.8265886 ]
    }
  }, {
    "type" : "Feature",
    "properties" : {
      "N." : "251",
      "Indirizzo" : "via Sergio Orata, 25, rione toiano",
      "Sopralluogo speditivo VVF/Comune" : "null",
      "STRUTTURALE" : "S",
      "Tipo danno" : "crepe nel portone evidenti",
      "Comune" : "Pozzuoli"
    },
    "geometry" : {
      "type" : "Point",
      "coordinates" : [ 14.0952243, 40.8438299 ]
    }
  }, {
    "type" : "Feature",
    "properties" : {
      "N." : "252",
      "Indirizzo" : "via Guglielmo Oberdan, 20",
      "Sopralluogo speditivo VVF/Comune" : "null",
      "STRUTTURALE" : "S",
      "Tipo danno" : "crepe in casa e nel vano scala",
      "Comune" : "Pozzuoli"
    },
    "geometry" : {
      "type" : "Point",
      "coordinates" : [ 14.123409, 40.826478 ]
    }
  }, {
    "type" : "Feature",
    "properties" : {
      "N." : "253",
      "Indirizzo" : "via Alfonso Artiaco, 134",
      "Sopralluogo speditivo VVF/Comune" : "null",
      "STRUTTURALE" : "S",
      "Tipo danno" : "crepe muro maestro vano scala e lesioni in casa",
      "Comune" : "Pozzuoli"
    },
    "geometry" : {
      "type" : "Point",
      "coordinates" : [ 14.1159846, 40.8356749 ]
    }
  }, {
    "type" : "Feature",
    "properties" : {
      "N." : "254",
      "Indirizzo" : "via Traversa Pisano, 19",
      "Sopralluogo speditivo VVF/Comune" : "null",
      "STRUTTURALE" : "S",
      "Tipo danno" : "lesioni porte e crepe portone",
      "Comune" : "Pozzuoli"
    },
    "geometry" : {
      "type" : "Point",
      "coordinates" : [ 14.1187593, 40.8317413 ]
    }
  }, {
    "type" : "Feature",
    "properties" : {
      "N." : "255",
      "Indirizzo" : "via Traversa Solfatara, 7 Parco D'Isanto",
      "Sopralluogo speditivo VVF/Comune" : "null",
      "STRUTTURALE" : "S",
      "Tipo danno" : "crepe dal soffitto al pavimento",
      "Comune" : "Pozzuoli"
    },
    "geometry" : {
      "type" : "Point",
      "coordinates" : [ 14.1313011, 40.8299212 ]
    }
  }, {
    "type" : "Feature",
    "properties" : {
      "N." : "256",
      "Indirizzo" : "via Vecchia San Gennaro, 149",
      "Sopralluogo speditivo VVF/Comune" : "null",
      "STRUTTURALE" : "S",
      "Tipo danno" : "lesioni interne",
      "Comune" : "Pozzuoli"
    },
    "geometry" : {
      "type" : "Point",
      "coordinates" : [ 14.1304612, 40.8247351 ]
    }
  }, {
    "type" : "Feature",
    "properties" : {
      "N." : "257",
      "Indirizzo" : "via Fondi di Cigliano, 20",
      "Sopralluogo speditivo VVF/Comune" : "null",
      "STRUTTURALE" : "S",
      "Tipo danno" : "assistenza per marito disabile allettato trasporto",
      "Comune" : "Pozzuoli"
    },
    "geometry" : {
      "type" : "Point",
      "coordinates" : [ 14.1256845, 40.8434558 ]
    }
  }, {
    "type" : "Feature",
    "properties" : {
      "N." : "258",
      "Indirizzo" : "via Corso Nicola Terracciano, 42",
      "Sopralluogo speditivo VVF/Comune" : "null",
      "STRUTTURALE" : "S",
      "Tipo danno" : "lesioni interne ed esterne",
      "Comune" : "Pozzuoli"
    },
    "geometry" : {
      "type" : "Point",
      "coordinates" : [ 14.1237099, 40.8267077 ]
    }
  }, {
    "type" : "Feature",
    "properties" : {
      "N." : "259",
      "Indirizzo" : "via Roma, 36",
      "Sopralluogo speditivo VVF/Comune" : "null",
      "STRUTTURALE" : "S",
      "Tipo danno" : "lesioni nel palazzo dell'abitazione",
      "Comune" : "Pozzuoli"
    },
    "geometry" : {
      "type" : "Point",
      "coordinates" : [ 14.119622, 40.8265886 ]
    }
  }, {
    "type" : "Feature",
    "properties" : {
      "N." : "260",
      "Indirizzo" : "via Pendio sant'elmo ,1",
      "Sopralluogo speditivo VVF/Comune" : "null",
      "STRUTTURALE" : "S",
      "Tipo danno" : "gravi lesioni scale con lesioni annessa appartamento",
      "Comune" : "Pozzuoli"
    },