{
"type": "FeatureCollection",
"name": "SegnalazioniCOCPozzuoli",
"crs": { "type": "name", "properties": { "name": "urn:ogc:def:crs:OGC:1.3:CRS84" } },
"features": [
{ "type": "Feature", "properties": { "N.": "1", "Indirizzo": "via Artiaco, 196", "Comune": "Pozzuoli", "Sopralluogo speditivo VVF/Comune": "null", "Tipo danno": "Lesione pilastri", "STRUTTURALE": "S" }, "geometry": { "type": "Point", "coordinates": [ 14.1166626, 40.8372768 ] } },
{ "type": "Feature", "properties": { "N.": "2", "Indirizzo": "via Catullo, 85", "Comune": "Pozzuoli", "Sopralluogo speditivo VVF/Comune": "null", "Tipo danno": "Lesione tramezzi e pilastri", "STRUTTURALE": "S" }, "geometry": { "type": "Point", "coordinates": [ 14.0876969, 40.8480032 ] } },
{ "type": "Feature", "properties": { "N.": "3", "Indirizzo": "via Savino Vitagliano, 22", "Comune": "Pozzuoli", "Sopralluogo speditivo VVF/Comune": "null", "Tipo danno": "Lesioni muratura, c.a., porte bloccate", "STRUTTURALE": "S" }, "geometry": { "type": "Point", "coordinates": [ 14.1337931, 40.8213228 ] } },
{ "type": "Feature", "properties": { "N.": "4", "Indirizzo": "via Diocleziano, 25 - P.co Delta", "Comune": "Pozzuoli", "Sopralluogo speditivo VVF/Comune": "null", "Tipo danno": "3 piani, c.a., lesioni tramezzi", "STRUTTURALE": "S" }, "geometry": { "type": "Point", "coordinates": [ 14.1085823, 40.8346487 ] } },
{ "type": "Feature", "properties": { "N.": "5", "Indirizzo": "via Matilde Serao, quarto", "Comune": "Pozzuoli", "Sopralluogo speditivo VVF/Comune": "null", "Tipo danno": "comunicazione interrotta a seguito scossa", "STRUTTURALE": "null" }, "geometry": { "type": "Point", "coordinates": [ 14.1422412, 40.8853444 ] } },
{ "type": "Feature", "properties": { "N.": "6", "Indirizzo": "via Massimo Campigli, 18 (600 alloggi) Fabb.34b", "Comune": "Pozzuoli", "Sopralluogo speditivo VVF/Comune": "null", "Tipo danno": "Genitori allettati - che fare?", "STRUTTURALE": "null" }, "geometry": { "type": "Point", "coordinates": [ 14.1085823, 40.8346487 ] } },
{ "type": "Feature", "properties": { "N.": "7", "Indirizzo": "via Monteruscello, 1", "Comune": "Pozzuoli", "Sopralluogo speditivo VVF/Comune": "null", "Tipo danno": "un genitore allettato - che fare?", "STRUTTURALE": "null" }, "geometry": { "type": "Point", "coordinates": [ 14.084391, 40.857748699999988 ] } },
{ "type": "Feature", "properties": { "N.": "8", "Indirizzo": "via Vecchia delle Vigne, 20", "Comune": "Pozzuoli", "Sopralluogo speditivo VVF/Comune": "null", "Tipo danno": "caduta calcinacci", "STRUTTURALE": "S" }, "geometry": { "type": "Point", "coordinates": [ 14.1303892, 40.8300383 ] } },
{ "type": "Feature", "properties": { "N.": "9", "Indirizzo": "via Prima Tr. Virgilio,14", "Comune": "Pozzuoli", "Sopralluogo speditivo VVF/Comune": "null", "Tipo danno": "lesioni", "STRUTTURALE": "S" }, "geometry": { "type": "Point", "coordinates": [ 14.1920569, 40.9268197 ] } },
{ "type": "Feature", "properties": { "N.": "10", "Indirizzo": "Via Giacinto Diano, 57", "Comune": "Pozzuoli", "Sopralluogo speditivo VVF/Comune": "null", "Tipo danno": "persona allettata - che fare?", "STRUTTURALE": "null" }, "geometry": { "type": "Point", "coordinates": [ 14.1259559, 40.8285686 ] } },
{ "type": "Feature", "properties": { "N.": "11", "Indirizzo": "Via Giacinto Diano, 41", "Comune": "Pozzuoli", "Sopralluogo speditivo VVF/Comune": "null", "Tipo danno": "Lesioni", "STRUTTURALE": "S" }, "geometry": { "type": "Point", "coordinates": [ 14.1250583, 40.8292987 ] } },
{ "type": "Feature", "properties": { "N.": "12", "Indirizzo": "Via Alfonso Artiaco, 132", "Comune": "Pozzuoli", "Sopralluogo speditivo VVF/Comune": "null", "Tipo danno": "null", "STRUTTURALE": "null" }, "geometry": { "type": "Point", "coordinates": [ 14.1159922, 40.8356476 ] } },
{ "type": "Feature", "properties": { "N.": "13", "Indirizzo": "Via Alfonso Artiaco, 198", "Comune": "Pozzuoli", "Sopralluogo speditivo VVF/Comune": "null", "Tipo danno": "null", "STRUTTURALE": "null" }, "geometry": { "type": "Point", "coordinates": [ 14.1162301, 40.8372077 ] } },
{ "type": "Feature", "properties": { "N.": "14", "Indirizzo": "II Traversa Coste d' Agnano, 30", "Comune": "Pozzuoli", "Sopralluogo speditivo VVF/Comune": "null", "Tipo danno": "null", "STRUTTURALE": "null" }, "geometry": { "type": "Point", "coordinates": [ 14.138831, 40.8324227 ] } },
{ "type": "Feature", "properties": { "N.": "15", "Indirizzo": "C.so Umberto I, 127", "Comune": "Pozzuoli", "Sopralluogo speditivo VVF/Comune": "null", "Tipo danno": "lesioni", "STRUTTURALE": "null" }, "geometry": { "type": "Point", "coordinates": [ 14.131305, 40.8213873 ] } },
{ "type": "Feature", "properties": { "N.": "16", "Indirizzo": "Via Cicerone, 7", "Comune": "Pozzuoli", "Sopralluogo speditivo VVF/Comune": "null", "Tipo danno": "crepe al soffitto", "STRUTTURALE": "S" }, "geometry": { "type": "Point", "coordinates": [ 14.0900096, 40.8428479 ] } },
{ "type": "Feature", "properties": { "N.": "17", "Indirizzo": "Lotto 1 Bis - Fabb. D - Cancello S", "Comune": "Pozzuoli", "Sopralluogo speditivo VVF/Comune": "null", "Tipo danno": "due invalidi al primo piano", "STRUTTURALE": "null" }, "geometry": { "type": "Point", "coordinates": [ 14.1085823, 40.8346487 ] } },
{ "type": "Feature", "properties": { "N.": "18", "Indirizzo": "Via Montenuovo Licola Patria, 86", "Comune": "Pozzuoli", "Sopralluogo speditivo VVF/Comune": "null", "Tipo danno": "lesioni pareti, scricchiolii vari, fabb. in c.a., 3p.f.t", "STRUTTURALE": "S" }, "geometry": { "type": "Point", "coordinates": [ 14.0950865, 40.8391411 ] } },
{ "type": "Feature", "properties": { "N.": "19", "Indirizzo": "Via Gavia Marciana, 8", "Comune": "Pozzuoli", "Sopralluogo speditivo VVF/Comune": "null", "Tipo danno": "Richiesta alloggio questa notte signora  allettata", "STRUTTURALE": "null" }, "geometry": { "type": "Point", "coordinates": [ 14.0859497, 40.8458666 ] } },
{ "type": "Feature", "properties": { "N.": "20", "Indirizzo": "VIA VECCHIA CAMPANA PARCO DE LUCA 38", "Comune": "Pozzuoli", "Sopralluogo speditivo VVF/Comune": "null", "Tipo danno": "LESIONI SU TRAMEZZATURE TELAIO IN C.A.", "STRUTTURALE": "S" }, "geometry": { "type": "Point", "coordinates": [ 14.1207799, 40.841388599999988 ] } },
{ "type": "Feature", "properties": { "N.": "21", "Indirizzo": "Traversa Giacinto Diano, 29", "Comune": "Pozzuoli", "Sopralluogo speditivo VVF/Comune": "null", "Tipo danno": "Lesioni scale, lesioni appartamento e muro maestro", "STRUTTURALE": "S" }, "geometry": { "type": "Point", "coordinates": [ 14.1234903, 40.8282616 ] } },
{ "type": "Feature", "properties": { "N.": "22", "Indirizzo": "Via Spezzata Tranvai, 1", "Comune": "Pozzuoli", "Sopralluogo speditivo VVF/Comune": "null", "Tipo danno": "Richiesta aiuto per portare su due persone non deambulanti", "STRUTTURALE": "null" }, "geometry": { "type": "Point", "coordinates": [ 14.12419, 40.8218824 ] } },
{ "type": "Feature", "properties": { "N.": "23", "Indirizzo": "Via Raimondo Annecchino, 218", "Comune": "Pozzuoli", "Sopralluogo speditivo VVF/Comune": "null", "Tipo danno": "Lesioni", "STRUTTURALE": "S" }, "geometry": { "type": "Point", "coordinates": [ 14.1031744, 40.8342783 ] } },
{ "type": "Feature", "properties": { "N.": "24", "Indirizzo": "Via Pisciartelli, 23", "Comune": "Pozzuoli", "Sopralluogo speditivo VVF/Comune": "null", "Tipo danno": "Lesioni", "STRUTTURALE": "S" }, "geometry": { "type": "Point", "coordinates": [ 14.155978, 40.8316485 ] } },
{ "type": "Feature", "properties": { "N.": "25", "Indirizzo": "Via Cupa delle Fescine, 35", "Comune": "Pozzuoli", "Sopralluogo speditivo VVF/Comune": "null", "Tipo danno": "Segnalazione per sospensione lavori ENEL in data 21/05/2024", "STRUTTURALE": "null" }, "geometry": { "type": "Point", "coordinates": [ 14.1048594, 40.8639266 ] } },
{ "type": "Feature", "properties": { "N.": "26", "Indirizzo": "Via Coste D'Agnano, 48", "Comune": "Pozzuoli", "Sopralluogo speditivo VVF/Comune": "null", "Tipo danno": "null", "STRUTTURALE": "null" }, "geometry": { "type": "Point", "coordinates": [ 14.138831, 40.8324227 ] } },
{ "type": "Feature", "properties": { "N.": "27", "Indirizzo": "Via Traversa Diano, 42 - P.co Bono", "Comune": "Pozzuoli", "Sopralluogo speditivo VVF/Comune": "null", "Tipo danno": "Lesioni", "STRUTTURALE": "S" }, "geometry": { "type": "Point", "coordinates": [ 14.1263836, 40.8291414 ] } },
{ "type": "Feature", "properties": { "N.": "28", "Indirizzo": "Via Cofanara, 34", "Comune": "Pozzuoli", "Sopralluogo speditivo VVF/Comune": "null", "Tipo danno": "Richiesta aiuto persone anziane", "STRUTTURALE": "null" }, "geometry": { "type": "Point", "coordinates": [ 14.1284787, 40.8499828 ] } },
{ "type": "Feature", "properties": { "N.": "29", "Indirizzo": "Via Diano, 41, Int. 4", "Comune": "Pozzuoli", "Sopralluogo speditivo VVF/Comune": "null", "Tipo danno": "Lesioni", "STRUTTURALE": "S" }, "geometry": { "type": "Point", "coordinates": [ 14.1250583, 40.8292987 ] } },
{ "type": "Feature", "properties": { "N.": "30", "Indirizzo": "Via terracciano, 19 - Isolato 28", "Comune": "Pozzuoli", "Sopralluogo speditivo VVF/Comune": "null", "Tipo danno": "Pareti lesionate", "STRUTTURALE": "S" }, "geometry": { "type": "Point", "coordinates": [ 14.1210405, 40.8302976 ] } },
{ "type": "Feature", "properties": { "N.": "31", "Indirizzo": "Via Vecchia delle Vigne, 28 int.9", "Comune": "Pozzuoli", "Sopralluogo speditivo VVF/Comune": "null", "Tipo danno": "Lesione al muro", "STRUTTURALE": "S" }, "geometry": { "type": "Point", "coordinates": [ 14.1314455, 40.8304929 ] } },
{ "type": "Feature", "properties": { "N.": "32", "Indirizzo": "Le Croci, 41", "Comune": "Pozzuoli", "Sopralluogo speditivo VVF/Comune": "null", "Tipo danno": "crepe", "STRUTTURALE": "S" }, "geometry": { "type": "Point", "coordinates": [ 14.0556112, 40.7971133 ] } },
{ "type": "Feature", "properties": { "N.": "33", "Indirizzo": "Via Massimo Campignli,12", "Comune": "Pozzuoli", "Sopralluogo speditivo VVF/Comune": "null", "Tipo danno": "crepe", "STRUTTURALE": "S" }, "geometry": { "type": "Point", "coordinates": [ 14.1085823, 40.8346487 ] } },
{ "type": "Feature", "properties": { "N.": "34", "Indirizzo": "Via Ovidio, 71", "Comune": "Pozzuoli", "Sopralluogo speditivo VVF/Comune": "null", "Tipo danno": "Aiuto Signora anziana allettata", "STRUTTURALE": "null" }, "geometry": { "type": "Point", "coordinates": [ 14.0888346, 40.8479177 ] } },
{ "type": "Feature", "properties": { "N.": "35", "Indirizzo": "Via Alfonso Artiaco, 39", "Comune": "Pozzuoli", "Sopralluogo speditivo VVF/Comune": "null", "Tipo danno": "Pareti lesionate", "STRUTTURALE": "S" }, "geometry": { "type": "Point", "coordinates": [ 14.115788, 40.8330954 ] } },
{ "type": "Feature", "properties": { "N.": "36", "Indirizzo": "Via Spezzata Tranvai,4", "Comune": "Pozzuoli", "Sopralluogo speditivo VVF/Comune": "null", "Tipo danno": "Pareti lesionate", "STRUTTURALE": "S" }, "geometry": { "type": "Point", "coordinates": [ 14.12419, 40.8218824 ] } },
{ "type": "Feature", "properties": { "N.": "37", "Indirizzo": "Via Montenuovo Licola Patria,90", "Comune": "Pozzuoli", "Sopralluogo speditivo VVF/Comune": "null", "Tipo danno": "Crepe", "STRUTTURALE": "S" }, "geometry": { "type": "Point", "coordinates": [ 14.0952149, 40.8399091 ] } },
{ "type": "Feature", "properties": { "N.": "38", "Indirizzo": "Via Cofanara", "Comune": "Pozzuoli", "Sopralluogo speditivo VVF/Comune": "null", "Tipo danno": "Crepe", "STRUTTURALE": "S" }, "geometry": { "type": "Point", "coordinates": [ 14.1303885, 40.8461962 ] } },
{ "type": "Feature", "properties": { "N.": "39", "Indirizzo": "Largo Lucio Cocceio, 25", "Comune": "Pozzuoli", "Sopralluogo speditivo VVF/Comune": "null", "Tipo danno": "Lesioni Pareti", "STRUTTURALE": "S" }, "geometry": { "type": "Point", "coordinates": [ 14.0929968, 40.8465196 ] } },
{ "type": "Feature", "properties": { "N.": "40", "Indirizzo": "Via marco Aurelio, 31", "Comune": "Pozzuoli", "Sopralluogo speditivo VVF/Comune": "null", "Tipo danno": "Assistenza per la notte", "STRUTTURALE": "null" }, "geometry": { "type": "Point", "coordinates": [ 14.0958636, 40.8458051 ] } },
{ "type": "Feature", "properties": { "N.": "41", "Indirizzo": "Corso N. Terracciano, 9", "Comune": "Pozzuoli", "Sopralluogo speditivo VVF/Comune": "null", "Tipo danno": "Lesioni", "STRUTTURALE": "S" }, "geometry": { "type": "Point", "coordinates": [ 14.1214069, 40.8298233 ] } },
{ "type": "Feature", "properties": { "N.": "42", "Indirizzo": "Viale Degli Imperatori, 12c", "Comune": "Pozzuoli", "Sopralluogo speditivo VVF/Comune": "null", "Tipo danno": "Assistenza Notte", "STRUTTURALE": "null" }, "geometry": { "type": "Point", "coordinates": [ 14.0961766, 40.8405618 ] } },
{ "type": "Feature", "properties": { "N.": "43", "Indirizzo": "Via Tripergola, 38", "Comune": "Pozzuoli", "Sopralluogo speditivo VVF/Comune": "null", "Tipo danno": "Aiuto persona operata non autonoma", "STRUTTURALE": "null" }, "geometry": { "type": "Point", "coordinates": [ 14.0855106, 40.8308396 ] } },
{ "type": "Feature", "properties": { "N.": "44", "Indirizzo": "Via Cesare Augusto, 7", "Comune": "Pozzuoli", "Sopralluogo speditivo VVF/Comune": "null", "Tipo danno": "Anziana da accudire", "STRUTTURALE": "null" }, "geometry": { "type": "Point", "coordinates": [ 14.119368, 40.822625599999988 ] } },
{ "type": "Feature", "properties": { "N.": "45", "Indirizzo": "Via R. Annecchino, 204", "Comune": "Pozzuoli", "Sopralluogo speditivo VVF/Comune": "null", "Tipo danno": "Anziana da accudire", "STRUTTURALE": "null" }, "geometry": { "type": "Point", "coordinates": [ 14.1046406, 40.8342191 ] } },
{ "type": "Feature", "properties": { "N.": "46", "Indirizzo": "Ottava traversa Campiglione,1", "Comune": "Pozzuoli", "Sopralluogo speditivo VVF/Comune": "null", "Tipo danno": "Assistenza persona anziana", "STRUTTURALE": "null" }, "geometry": { "type": "Point", "coordinates": [ 14.1140635, 40.8534622 ] } },
{ "type": "Feature", "properties": { "N.": "47", "Indirizzo": "Via Toiano, 5", "Comune": "Pozzuoli", "Sopralluogo speditivo VVF/Comune": "null", "Tipo danno": "Assistenza persona anziana", "STRUTTURALE": "null" }, "geometry": { "type": "Point", "coordinates": [ 14.0874508, 40.8441171 ] } },
{ "type": "Feature", "properties": { "N.": "48", "Indirizzo": "Travesa solfatara 8/b", "Comune": "Pozzuoli", "Sopralluogo speditivo VVF/Comune": "null", "Tipo danno": "Lesione parete", "STRUTTURALE": "S" }, "geometry": { "type": "Point", "coordinates": [ 14.131296, 40.8302129 ] } },
{ "type": "Feature", "properties": { "N.": "49", "Indirizzo": "Via Solfatara 18/A", "Comune": "Pozzuoli", "Sopralluogo speditivo VVF/Comune": "null", "Tipo danno": "Assistenza Anziani", "STRUTTURALE": "null" }, "geometry": { "type": "Point", "coordinates": [ 14.1275935, 40.8272077 ] } },
{ "type": "Feature", "properties": { "N.": "50", "Indirizzo": "Seconda traversa Luciano,6", "Comune": "Pozzuoli", "Sopralluogo speditivo VVF/Comune": "null", "Tipo danno": "Lesioni in vari ambienti", "STRUTTURALE": "S" }, "geometry": { "type": "Point", "coordinates": [ 14.115357, 40.832577 ] } },
{ "type": "Feature", "properties": { "N.": "51", "Indirizzo": "Via Toiano, 4 - P.co Garden Village", "Comune": "Pozzuoli", "Sopralluogo speditivo VVF/Comune": "null", "Tipo danno": "Spaccature - lesioni", "STRUTTURALE": "S" }, "geometry": { "type": "Point", "coordinates": [ 14.0897274, 40.8413011 ] } },
{ "type": "Feature", "properties": { "N.": "52", "Indirizzo": "Via Rosini, 12/B", "Comune": "Pozzuoli", "Sopralluogo speditivo VVF/Comune": "null", "Tipo danno": "Spaccature - lesioni varie", "STRUTTURALE": "S" }, "geometry": { "type": "Point", "coordinates": [ 14.1251093, 40.8234698 ] } },
{ "type": "Feature", "properties": { "N.": "53", "Indirizzo": "Via R. Annecchino, 69", "Comune": "Pozzuoli", "Sopralluogo speditivo VVF/Comune": "null", "Tipo danno": "Spaccature - lesioni", "STRUTTURALE": "S" }, "geometry": { "type": "Point", "coordinates": [ 14.1037482, 40.8341213 ] } },
{ "type": "Feature", "properties": { "N.": "54", "Indirizzo": "Condominio, viale Aranci 5-12", "Comune": "Pozzuoli", "Sopralluogo speditivo VVF/Comune": "null", "Tipo danno": "Lesioni interne/esterne", "STRUTTURALE": "S" }, "geometry": { "type": "Point", "coordinates": [ 14.1266902, 40.8294124 ] } },
{ "type": "Feature", "properties": { "N.": "55", "Indirizzo": "Viale Bognar, 31-47; 26-63", "Comune": "Pozzuoli", "Sopralluogo speditivo VVF/Comune": "null", "Tipo danno": "Lesioni interne/esterne", "STRUTTURALE": "S" }, "geometry": { "type": "Point", "coordinates": [ 14.1269262, 40.8287013 ] } },
{ "type": "Feature", "properties": { "N.": "56", "Indirizzo": "Via Giacomo Contessa 14", "Comune": "Pozzuoli", "Sopralluogo speditivo VVF/Comune": "null", "Tipo danno": "Crepe pareti crollo soffitto", "STRUTTURALE": "S" }, "geometry": { "type": "Point", "coordinates": [ 14.1326136, 40.8216317 ] } },
{ "type": "Feature", "properties": { "N.": "57", "Indirizzo": "Via Vecchia delle Vigne 26 A", "Comune": "Pozzuoli", "Sopralluogo speditivo VVF/Comune": "null", "Tipo danno": "crepe interne ed esterne", "STRUTTURALE": "S" }, "geometry": { "type": "Point", "coordinates": [ 14.1319803, 40.830711699999988 ] } },
{ "type": "Feature", "properties": { "N.": "58", "Indirizzo": "Via Lucilio 5", "Comune": "Pozzuoli", "Sopralluogo speditivo VVF/Comune": "null", "Tipo danno": "Assistenza anziano con disabilità e 2 bambini disabili", "STRUTTURALE": "null" }, "geometry": { "type": "Point", "coordinates": [ 14.0862872, 40.8424032 ] } },
{ "type": "Feature", "properties": { "N.": "59", "Indirizzo": "Via Solfatara 101 c", "Comune": "Pozzuoli", "Sopralluogo speditivo VVF/Comune": "null", "Tipo danno": "Caduta intonaco e crepe cemento", "STRUTTURALE": "S" }, "geometry": { "type": "Point", "coordinates": [ 14.1315259, 40.829421 ] } },
{ "type": "Feature", "properties": { "N.": "60", "Indirizzo": "Via Coste d'Agnano, II Traversa, 86", "Comune": "Pozzuoli", "Sopralluogo speditivo VVF/Comune": "null", "Tipo danno": "Alloggio per famiglia con 3 bambini", "STRUTTURALE": "null" }, "geometry": { "type": "Point", "coordinates": [ 14.138831, 40.8324227 ] } },
{ "type": "Feature", "properties": { "N.": "61", "Indirizzo": "Viale Campi Flegrei presso Baia Caffè", "Comune": "Pozzuoli", "Sopralluogo speditivo VVF/Comune": "null", "Tipo danno": "Impalcatura pericolante", "STRUTTURALE": "S" }, "geometry": { "type": "Point", "coordinates": [ 14.1085823, 40.8346487 ] } },
{ "type": "Feature", "properties": { "N.": "62", "Indirizzo": "Via Brancati,9", "Comune": "Pozzuoli", "Sopralluogo speditivo VVF/Comune": "null", "Tipo danno": "Assistenza figlio disabile all'allontanamento da casa", "STRUTTURALE": "null" }, "geometry": { "type": "Point", "coordinates": [ 14.0827684, 40.8779928 ] } },
{ "type": "Feature", "properties": { "N.": "63", "Indirizzo": "Via G. Parini, 22", "Comune": "Pozzuoli", "Sopralluogo speditivo VVF/Comune": "null", "Tipo danno": "Assistenza per la notte/ Segnalazione mancanza rete internet in zona", "STRUTTURALE": "null" }, "geometry": { "type": "Point", "coordinates": [ 14.0828284, 40.875749 ] } },
{ "type": "Feature", "properties": { "N.": "64", "Indirizzo": "Via solfatara, 101 c.1 - Parco di Bonito", "Comune": "Pozzuoli", "Sopralluogo speditivo VVF/Comune": "null", "Tipo danno": "Lesioni gravi interne ed esterne", "STRUTTURALE": "S" }, "geometry": { "type": "Point", "coordinates": [ 14.13149, 40.82925 ] } },
{ "type": "Feature", "properties": { "N.": "65", "Indirizzo": "Via Vecchia delle vigne, 30", "Comune": "Pozzuoli", "Sopralluogo speditivo VVF/Comune": "null", "Tipo danno": "Lesioni gravi interne ed esterne", "STRUTTURALE": "S" }, "geometry": { "type": "Point", "coordinates": [ 14.1316265, 40.8306134 ] } },
{ "type": "Feature", "properties": { "N.": "66", "Indirizzo": "Via Vecchia San Gennaro, 153G", "Comune": "Pozzuoli", "Sopralluogo speditivo VVF/Comune": "null", "Tipo danno": "Lesioni passanti dall'interno all'esterno", "STRUTTURALE": "S" }, "geometry": { "type": "Point", "coordinates": [ 14.1318195, 40.8248687 ] } },
{ "type": "Feature", "properties": { "N.": "67", "Indirizzo": "Via Carlo Rosini", "Comune": "Pozzuoli", "Sopralluogo speditivo VVF/Comune": "null", "Tipo danno": "problema di deambulazione", "STRUTTURALE": "null" }, "geometry": { "type": "Point", "coordinates": [ 14.1253332, 40.8239052 ] } },
{ "type": "Feature", "properties": { "N.": "68", "Indirizzo": "Rione Toiano - Case Parcheggio c/o centro sociale", "Comune": "Pozzuoli", "Sopralluogo speditivo VVF/Comune": "null", "Tipo danno": "Assistenza a bambini e anziani disabili", "STRUTTURALE": "null" }, "geometry": { "type": "Point", "coordinates": [ 14.0889071, 40.8423597 ] } },
{ "type": "Feature", "properties": { "N.": "69", "Indirizzo": "Via Girone, 52", "Comune": "Pozzuoli", "Sopralluogo speditivo VVF/Comune": "null", "Tipo danno": "Forte perdita d'acqua", "STRUTTURALE": "S" }, "geometry": { "type": "Point", "coordinates": [ 14.1085823, 40.8346487 ] } },
{ "type": "Feature", "properties": { "N.": "70", "Indirizzo": "Via Alfonso Artiaco, 172", "Comune": "Pozzuoli", "Sopralluogo speditivo VVF/Comune": "null", "Tipo danno": "Caduta calcinacci", "STRUTTURALE": "S" }, "geometry": { "type": "Point", "coordinates": [ 14.1160995, 40.8364858 ] } },
{ "type": "Feature", "properties": { "N.": "71", "Indirizzo": "Via Alfonso Artiaco, 198", "Comune": "Pozzuoli", "Sopralluogo speditivo VVF/Comune": "null", "Tipo danno": "Lesioni", "STRUTTURALE": "S" }, "geometry": { "type": "Point", "coordinates": [ 14.1162301, 40.8372077 ] } },
{ "type": "Feature", "properties": { "N.": "72", "Indirizzo": "Via Cicerone c/o chiesa s. Michele", "Comune": "Pozzuoli", "Sopralluogo speditivo VVF/Comune": "null", "Tipo danno": "Bagno chimico", "STRUTTURALE": "null" }, "geometry": { "type": "Point", "coordinates": [ 14.0892573, 40.8452348 ] } },
{ "type": "Feature", "properties": { "N.": "73", "Indirizzo": "Via Vigna, 58", "Comune": "Pozzuoli", "Sopralluogo speditivo VVF/Comune": "null", "Tipo danno": "Lesioni interne", "STRUTTURALE": "S" }, "geometry": { "type": "Point", "coordinates": [ 14.1299474, 40.8272242 ] } },
{ "type": "Feature", "properties": { "N.": "74", "Indirizzo": "Via A. Artiaco, 198", "Comune": "Pozzuoli", "Sopralluogo speditivo VVF/Comune": "null", "Tipo danno": "Lesione interne ed esterne", "STRUTTURALE": "S" }, "geometry": { "type": "Point", "coordinates": [ 14.1162301, 40.8372077 ] } },
{ "type": "Feature", "properties": { "N.": "75", "Indirizzo": "Via G. De Fraia, 11", "Comune": "Pozzuoli", "Sopralluogo speditivo VVF/Comune": "null", "Tipo danno": "Lesioni interne ed esterne - Assistenza bambino disabile (4 anni)", "STRUTTURALE": "S" }, "geometry": { "type": "Point", "coordinates": [ 14.1209399, 40.8229704 ] } },
{ "type": "Feature", "properties": { "N.": "76", "Indirizzo": "II Traversa angelo Compagnone, 1", "Comune": "Pozzuoli", "Sopralluogo speditivo VVF/Comune": "null", "Tipo danno": "Lesioni interne ed esterne - Assistenza 2 adulti disabili", "STRUTTURALE": "S" }, "geometry": { "type": "Point", "coordinates": [ 14.1252612, 40.8223124 ] } },
{ "type": "Feature", "properties": { "N.": "77", "Indirizzo": "IV Traversa Barletta, 19", "Comune": "Pozzuoli", "Sopralluogo speditivo VVF/Comune": "null", "Tipo danno": "Lesioni interne ed esterne", "STRUTTURALE": "S" }, "geometry": { "type": "Point", "coordinates": [ 14.1283286, 40.8224676 ] } },
{ "type": "Feature", "properties": { "N.": "78", "Indirizzo": "Traversa Solfatara, 5 - Parco D'Isanto", "Comune": "Pozzuoli", "Sopralluogo speditivo VVF/Comune": "null", "Tipo danno": "Pareti lesionate e tubo che perde", "STRUTTURALE": "S" }, "geometry": { "type": "Point", "coordinates": [ 14.1310748, 40.830024 ] } },
{ "type": "Feature", "properties": { "N.": "79", "Indirizzo": "Traversa Solfatara, 5 - Parco D'Isanto scala M", "Comune": "Pozzuoli", "Sopralluogo speditivo VVF/Comune": "null", "Tipo danno": "null", "STRUTTURALE": "null" }, "geometry": { "type": "Point", "coordinates": [ 14.1310748, 40.830024 ] } },
{ "type": "Feature", "properties": { "N.": "80", "Indirizzo": "Via Roma, 36", "Comune": "Pozzuoli", "Sopralluogo speditivo VVF/Comune": "null", "Tipo danno": "Pareti Lesionate", "STRUTTURALE": "S" }, "geometry": { "type": "Point", "coordinates": [ 14.119622, 40.8265886 ] } },
{ "type": "Feature", "properties": { "N.": "81", "Indirizzo": "Via Barretta, 1-10", "Comune": "Pozzuoli", "Sopralluogo speditivo VVF/Comune": "null", "Tipo danno": "Caduta calcinacci", "STRUTTURALE": "S" }, "geometry": { "type": "Point", "coordinates": [ 14.1282013, 40.8218356 ] } },
{ "type": "Feature", "properties": { "N.": "82", "Indirizzo": "Via Celle,2 - P.co Cicerone", "Comune": "Pozzuoli", "Sopralluogo speditivo VVF/Comune": "null", "Tipo danno": "Pareti lesionate", "STRUTTURALE": "S" }, "geometry": { "type": "Point", "coordinates": [ 14.1220091, 40.8303589 ] } },
{ "type": "Feature", "properties": { "N.": "83", "Indirizzo": "I Tracersa Privata Coste d'Agnano", "Comune": "Pozzuoli", "Sopralluogo speditivo VVF/Comune": "null", "Tipo danno": "Forte perdita d'acqua inizio viale - Pareti lesionate in tutta la palazzina", "STRUTTURALE": "S" }, "geometry": { "type": "Point", "coordinates": [ 14.137621, 40.8313937 ] } },
{ "type": "Feature", "properties": { "N.": "84", "Indirizzo": "Vecchia S. Gennaro, 143", "Comune": "Pozzuoli", "Sopralluogo speditivo VVF/Comune": "null", "Tipo danno": "Lesioni", "STRUTTURALE": "S" }, "geometry": { "type": "Point", "coordinates": [ 14.1301286, 40.824868 ] } },
{ "type": "Feature", "properties": { "N.": "85", "Indirizzo": "Via Sacchini, 6", "Comune": "Pozzuoli", "Sopralluogo speditivo VVF/Comune": "null", "Tipo danno": "lesioni interne ed esterne - distacco battiscopa", "STRUTTURALE": "S" }, "geometry": { "type": "Point", "coordinates": [ 14.1207118, 40.8269591 ] } },
{ "type": "Feature", "properties": { "N.": "86", "Indirizzo": "Corso Nicola Terracciano, 19 is.22", "Comune": "Pozzuoli", "Sopralluogo speditivo VVF/Comune": "null", "Tipo danno": "lesioni", "STRUTTURALE": "S" }, "geometry": { "type": "Point", "coordinates": [ 14.1210405, 40.8302976 ] } },
{ "type": "Feature", "properties": { "N.": "87", "Indirizzo": "Via Cofanara, 34", "Comune": "Pozzuoli", "Sopralluogo speditivo VVF/Comune": "null", "Tipo danno": "lesioni", "STRUTTURALE": "S" }, "geometry": { "type": "Point", "coordinates": [ 14.1284787, 40.8499828 ] } },
{ "type": "Feature", "properties": { "N.": "88", "Indirizzo": "Via Vecchia San gennaro, 29", "Comune": "Pozzuoli", "Sopralluogo speditivo VVF/Comune": "null", "Tipo danno": "lesioni solaio", "STRUTTURALE": "S" }, "geometry": { "type": "Point", "coordinates": [ 14.127252, 40.8248608 ] } },
{ "type": "Feature", "properties": { "N.": "89", "Indirizzo": "Via Serapide, 35", "Comune": "Pozzuoli", "Sopralluogo speditivo VVF/Comune": "null", "Tipo danno": "lesioni interno palazzo e vano scala", "STRUTTURALE": "S" }, "geometry": { "type": "Point", "coordinates": [ 14.120263, 40.826605 ] } },
{ "type": "Feature", "properties": { "N.": "90", "Indirizzo": "Corso Umberto I, 29", "Comune": "Pozzuoli", "Sopralluogo speditivo VVF/Comune": "null", "Tipo danno": "lesioni/caduta calcinacci", "STRUTTURALE": "S" }, "geometry": { "type": "Point", "coordinates": [ 14.125944, 40.821523 ] } },
{ "type": "Feature", "properties": { "N.": "91", "Indirizzo": "Via degli aranci - P.co Bono", "Comune": "Pozzuoli", "Sopralluogo speditivo VVF/Comune": "null", "Tipo danno": "Lesioni", "STRUTTURALE": "S" }, "geometry": { "type": "Point", "coordinates": [ 14.1270655, 40.8301539 ] } },
{ "type": "Feature", "properties": { "N.": "92", "Indirizzo": "Via Luciano, 50", "Comune": "Pozzuoli", "Sopralluogo speditivo VVF/Comune": "null", "Tipo danno": "Lesioni", "STRUTTURALE": "S" }, "geometry": { "type": "Point", "coordinates": [ 14.1149434, 40.8324251 ] } },
{ "type": "Feature", "properties": { "N.": "93", "Indirizzo": "Via Vecchia S. Gennaro, 120", "Comune": "Pozzuoli", "Sopralluogo speditivo VVF/Comune": "null", "Tipo danno": "Lesioni", "STRUTTURALE": "S" }, "geometry": { "type": "Point", "coordinates": [ 14.1345579, 40.826726 ] } },
{ "type": "Feature", "properties": { "N.": "94", "Indirizzo": "Via Vigna, 52", "Comune": "Pozzuoli", "Sopralluogo speditivo VVF/Comune": "null", "Tipo danno": "caduta intonaco / lesioni", "STRUTTURALE": "S" }, "geometry": { "type": "Point", "coordinates": [ 14.1297813, 40.826796 ] } },
{ "type": "Feature", "properties": { "N.": "95", "Indirizzo": "Via Giacinto Diano, 41", "Comune": "Pozzuoli", "Sopralluogo speditivo VVF/Comune": "null", "Tipo danno": "lesioni/caduta calcinacci", "STRUTTURALE": "S" }, "geometry": { "type": "Point", "coordinates": [ 14.1250583, 40.8292987 ] } },
{ "type": "Feature", "properties": { "N.": "95", "Indirizzo": "Via Serapide, 35", "Comune": "Pozzuoli", "Sopralluogo speditivo VVF/Comune": "null", "Tipo danno": "Lesioni", "STRUTTURALE": "S" }, "geometry": { "type": "Point", "coordinates": [ 14.120263, 40.826605 ] } },
{ "type": "Feature", "properties": { "N.": "96", "Indirizzo": "Traversa Maroder, 4", "Comune": "Pozzuoli", "Sopralluogo speditivo VVF/Comune": "null", "Tipo danno": "Lesioni", "STRUTTURALE": "S" }, "geometry": { "type": "Point", "coordinates": [ 14.1262593, 40.8264541 ] } },
{ "type": "Feature", "properties": { "N.": "97", "Indirizzo": "Via Oberdan,45", "Comune": "Pozzuoli", "Sopralluogo speditivo VVF/Comune": "null", "Tipo danno": "Lesioni/caduta calcinacci", "STRUTTURALE": "S" }, "geometry": { "type": "Point", "coordinates": [ 14.1224461, 40.8271222 ] } },
{ "type": "Feature", "properties": { "N.": "98", "Indirizzo": "Via Anfiteatro,3", "Comune": "Pozzuoli", "Sopralluogo speditivo VVF/Comune": "null", "Tipo danno": "Lesioni interne ed esterne", "STRUTTURALE": "S" }, "geometry": { "type": "Point", "coordinates": [ 14.1253117, 40.8250429 ] } },
{ "type": "Feature", "properties": { "N.": "99", "Indirizzo": "Via Solfatara p.co Cavaliere, 35", "Comune": "Pozzuoli", "Sopralluogo speditivo VVF/Comune": "null", "Tipo danno": "Lesioni interne ed esterne", "STRUTTURALE": "S" }, "geometry": { "type": "Point", "coordinates": [ 14.1282679, 40.8289163 ] } },
{ "type": "Feature", "properties": { "N.": "100", "Indirizzo": "Viale Villa Bianca,2", "Comune": "Pozzuoli", "Sopralluogo speditivo VVF/Comune": "null", "Tipo danno": "Lesioni", "STRUTTURALE": "S" }, "geometry": { "type": "Point", "coordinates": [ 14.1274046, 40.8282973 ] } },
{ "type": "Feature", "properties": { "N.": "101", "Indirizzo": "Via Solfatara, 37", "Comune": "Pozzuoli", "Sopralluogo speditivo VVF/Comune": "null", "Tipo danno": "Lesioni interne ed esterne", "STRUTTURALE": "S" }, "geometry": { "type": "Point", "coordinates": [ 14.128704, 40.8292071 ] } },
{ "type": "Feature", "properties": { "N.": "102", "Indirizzo": "Rione Solfatara II trav. Coste di Agnano 37", "Comune": "Pozzuoli", "Sopralluogo speditivo VVF/Comune": "null", "Tipo danno": "Lesioni interne ed esterne", "STRUTTURALE": "S" }, "geometry": { "type": "Point", "coordinates": [ 14.138831, 40.8324227 ] } },
{ "type": "Feature", "properties": { "N.": "103", "Indirizzo": "II trav. Coste di Agnano, 30", "Comune": "Pozzuoli", "Sopralluogo speditivo VVF/Comune": "null", "Tipo danno": "lesioni", "STRUTTURALE": "S" }, "geometry": { "type": "Point", "coordinates": [ 14.138831, 40.8324227 ] } },
{ "type": "Feature", "properties": { "N.": "104", "Indirizzo": "Via Vecchia delle Vigne , 28", "Comune": "Pozzuoli", "Sopralluogo speditivo VVF/Comune": "null", "Tipo danno": "Lesioni", "STRUTTURALE": "S" }, "geometry": { "type": "Point", "coordinates": [ 14.1314455, 40.8304929 ] } },
{ "type": "Feature", "properties": { "N.": "105", "Indirizzo": "Via Trav. Giacinto Diano, 7", "Comune": "Pozzuoli", "Sopralluogo speditivo VVF/Comune": "null", "Tipo danno": "lesioni", "STRUTTURALE": "S" }, "geometry": { "type": "Point", "coordinates": [ 14.1259411, 40.8288451 ] } },
{ "type": "Feature", "properties": { "N.": "106", "Indirizzo": "Via Traversa Giacinto Diano, 11", "Comune": "Pozzuoli", "Sopralluogo speditivo VVF/Comune": "null", "Tipo danno": "Lesioni", "STRUTTURALE": "S" }, "geometry": { "type": "Point", "coordinates": [ 14.126105, 40.8291156 ] } },
{ "type": "Feature", "properties": { "N.": "107", "Indirizzo": "Corso Terracciano, 61 (Ufficio P.T)", "Comune": "Pozzuoli", "Sopralluogo speditivo VVF/Comune": "null", "Tipo danno": "caduta calcinacci/crepa", "STRUTTURALE": "S" }, "geometry": { "type": "Point", "coordinates": [ 14.1239591, 40.82694 ] } },
{ "type": "Feature", "properties": { "N.": "108", "Indirizzo": "Via Vecchie delle Vigne, 28/A", "Comune": "Pozzuoli", "Sopralluogo speditivo VVF/Comune": "null", "Tipo danno": "Lesioni su tutte le pareti", "STRUTTURALE": "S" }, "geometry": { "type": "Point", "coordinates": [ 14.1314455, 40.8304929 ] } },
{ "type": "Feature", "properties": { "N.": "109", "Indirizzo": "Via Vigna, 58", "Comune": "Pozzuoli", "Sopralluogo speditivo VVF/Comune": "null", "Tipo danno": "Struttura muratura, 2 piani ft, lesioni diffuse", "STRUTTURALE": "S" }, "geometry": { "type": "Point", "coordinates": [ 14.1299474, 40.8272242 ] } },
{ "type": "Feature", "properties": { "N.": "110", "Indirizzo": "Via Vecchia delle Vigna, 30", "Comune": "Pozzuoli", "Sopralluogo speditivo VVF/Comune": "null", "Tipo danno": "Lesione pilastri e tompagni", "STRUTTURALE": "S" }, "geometry": { "type": "Point", "coordinates": [ 14.1316265, 40.8306134 ] } },
{ "type": "Feature", "properties": { "N.": "111", "Indirizzo": "Via Vitaliano brancati, 9", "Comune": "Pozzuoli", "Sopralluogo speditivo VVF/Comune": "null", "Tipo danno": "Assitenza signora anziana allettata - Lesioni diffuse", "STRUTTURALE": "S" }, "geometry": { "type": "Point", "coordinates": [ 14.0827684, 40.8779928 ] } },
{ "type": "Feature", "properties": { "N.": "112", "Indirizzo": "Viale Villa Bianca,1", "Comune": "Pozzuoli", "Sopralluogo speditivo VVF/Comune": "null", "Tipo danno": "Lesioni alle tramezzature", "STRUTTURALE": "S" }, "geometry": { "type": "Point", "coordinates": [ 14.1273377, 40.8281887 ] } },
{ "type": "Feature", "properties": { "N.": "113", "Indirizzo": "I Traversa P.co Bognar,6", "Comune": "Pozzuoli", "Sopralluogo speditivo VVF/Comune": "null", "Tipo danno": "Crepe diffuse interne ed esterne", "STRUTTURALE": "S" }, "geometry": { "type": "Point", "coordinates": [ 14.1274138, 40.8296799 ] } },
{ "type": "Feature", "properties": { "N.": "114", "Indirizzo": "Via G. Diano, 57", "Comune": "Pozzuoli", "Sopralluogo speditivo VVF/Comune": "null", "Tipo danno": "lesioni diffuse tramezzature", "STRUTTURALE": "S" }, "geometry": { "type": "Point", "coordinates": [ 14.1259559, 40.8285686 ] } },
{ "type": "Feature", "properties": { "N.": "115", "Indirizzo": "Via Solfatara, 101/B", "Comune": "Pozzuoli", "Sopralluogo speditivo VVF/Comune": "null", "Tipo danno": "Crepe verticali ed orizzontali in tutte le stanze", "STRUTTURALE": "S" }, "geometry": { "type": "Point", "coordinates": [ 14.1315259, 40.829421 ] } },
{ "type": "Feature", "properties": { "N.": "116", "Indirizzo": "Via Miliscola, 133 - P.co Caruso", "Comune": "Pozzuoli", "Sopralluogo speditivo VVF/Comune": "null", "Tipo danno": "crepa in un angolo importante, crepe al soffitto - Attività commerciale", "STRUTTURALE": "S" }, "geometry": { "type": "Point", "coordinates": [ 14.0980001, 40.8336744 ] } },
{ "type": "Feature", "properties": { "N.": "117", "Indirizzo": "Via G. Diano, 57", "Comune": "Pozzuoli", "Sopralluogo speditivo VVF/Comune": "null", "Tipo danno": "lesioni diffuse", "STRUTTURALE": "S" }, "geometry": { "type": "Point", "coordinates": [ 14.1259559, 40.8285686 ] } },
{ "type": "Feature", "properties": { "N.": "118", "Indirizzo": "Via Solfatara, 20 - Cremeria Azzurra", "Comune": "Pozzuoli", "Sopralluogo speditivo VVF/Comune": "null", "Tipo danno": "Lesioni diffuse - Attività commerciale", "STRUTTURALE": "S" }, "geometry": { "type": "Point", "coordinates": [ 14.127681, 40.8272704 ] } },
{ "type": "Feature", "properties": { "N.": "119", "Indirizzo": "Via Vecchia Campana, 28 - P.co De Luca", "Comune": "Pozzuoli", "Sopralluogo speditivo VVF/Comune": "null", "Tipo danno": "crepe sottili diffuse - richiesta verifica", "STRUTTURALE": "S" }, "geometry": { "type": "Point", "coordinates": [ 14.1198543, 40.8409599 ] } },
{ "type": "Feature", "properties": { "N.": "120", "Indirizzo": "Via Solfatara, 35 - P.co Cavaliere", "Comune": "Pozzuoli", "Sopralluogo speditivo VVF/Comune": "null", "Tipo danno": "Lesioni", "STRUTTURALE": "S" }, "geometry": { "type": "Point", "coordinates": [ 14.1282679, 40.8289163 ] } },
{ "type": "Feature", "properties": { "N.": "121", "Indirizzo": "Via C. Cappuccini, 10", "Comune": "Pozzuoli", "Sopralluogo speditivo VVF/Comune": "null", "Tipo danno": "Richiesta verifica al fabbricato", "STRUTTURALE": "S" }, "geometry": { "type": "Point", "coordinates": [ 14.1261128, 40.8220622 ] } },
{ "type": "Feature", "properties": { "N.": "122", "Indirizzo": "Via Alfonso Artiaco, 103", "Comune": "Pozzuoli", "Sopralluogo speditivo VVF/Comune": "null", "Tipo danno": "Lesione cassa scala, soffitto appartamento", "STRUTTURALE": "S" }, "geometry": { "type": "Point", "coordinates": [ 14.116688, 40.8399593 ] } },
{ "type": "Feature", "properties": { "N.": "123", "Indirizzo": "Viale degli Aranci, 17", "Comune": "Pozzuoli", "Sopralluogo speditivo VVF/Comune": "null", "Tipo danno": "Intonaco staccato, murature crepate, struttura in c.a.", "STRUTTURALE": "S" }, "geometry": { "type": "Point", "coordinates": [ 14.1271561, 40.8298969 ] } },
{ "type": "Feature", "properties": { "N.": "124", "Indirizzo": "C.so Nicola Terracciano, 42", "Comune": "Pozzuoli", "Sopralluogo speditivo VVF/Comune": "null", "Tipo danno": "Crepe muratura portante", "STRUTTURALE": "S" }, "geometry": { "type": "Point", "coordinates": [ 14.1237099, 40.8267077 ] } },
{ "type": "Feature", "properties": { "N.": "125", "Indirizzo": "Via Vigna, 78", "Comune": "Pozzuoli", "Sopralluogo speditivo VVF/Comune": "null", "Tipo danno": "Lievi lesioni in muratura", "STRUTTURALE": "S" }, "geometry": { "type": "Point", "coordinates": [ 14.1330814, 40.8277519 ] } },
{ "type": "Feature", "properties": { "N.": "126", "Indirizzo": "Via Pergolesi, 52", "Comune": "Pozzuoli", "Sopralluogo speditivo VVF/Comune": "null", "Tipo danno": "Lesioni sui piani", "STRUTTURALE": "S" }, "geometry": { "type": "Point", "coordinates": [ 14.1221866, 40.8259941 ] } },
{ "type": "Feature", "properties": { "N.": "127", "Indirizzo": "Via Oberdan, 37/A", "Comune": "Pozzuoli", "Sopralluogo speditivo VVF/Comune": "null", "Tipo danno": "Lesioni da taglio, fabb. In muratura", "STRUTTURALE": "S" }, "geometry": { "type": "Point", "coordinates": [ 14.1226736, 40.8268894 ] } },
{ "type": "Feature", "properties": { "N.": "128", "Indirizzo": "Via Alfonso Artiaco, 114", "Comune": "Pozzuoli", "Sopralluogo speditivo VVF/Comune": "null", "Tipo danno": "Lesioni interne ed esterne pilastri", "STRUTTURALE": "S" }, "geometry": { "type": "Point", "coordinates": [ 14.116276, 40.8334389 ] } },
{ "type": "Feature", "properties": { "N.": "129", "Indirizzo": "Traversa Solfatara, 11 - P.co D'Isanto", "Comune": "Pozzuoli", "Sopralluogo speditivo VVF/Comune": "null", "Tipo danno": "Lesioni interne", "STRUTTURALE": "S" }, "geometry": { "type": "Point", "coordinates": [ 14.135923, 40.8310055 ] } },
{ "type": "Feature", "properties": { "N.": "130", "Indirizzo": "Via Vecchia San Gennaro,107 - Parco Rocco", "Comune": "Pozzuoli", "Sopralluogo speditivo VVF/Comune": "null", "Tipo danno": "Lesioni interne ed esterne", "STRUTTURALE": "S" }, "geometry": { "type": "Point", "coordinates": [ 14.1286448, 40.8248548 ] } },
{ "type": "Feature", "properties": { "N.": "131", "Indirizzo": "Via R. Annecchino, 154", "Comune": "Pozzuoli", "Sopralluogo speditivo VVF/Comune": "null", "Tipo danno": "Lesioni su tutte le pareti", "STRUTTURALE": "S" }, "geometry": { "type": "Point", "coordinates": [ 14.1077105, 40.8341001 ] } },
{ "type": "Feature", "properties": { "N.": "132", "Indirizzo": "Via Vicinale Monte Barbaro, 51", "Comune": "Pozzuoli", "Sopralluogo speditivo VVF/Comune": "null", "Tipo danno": "Lesioni al solo soffitto", "STRUTTURALE": "S" }, "geometry": { "type": "Point", "coordinates": [ 14.1110254, 40.8371748 ] } },
{ "type": "Feature", "properties": { "N.": "133", "Indirizzo": "VII Angelo Compagnone, 5", "Comune": "Pozzuoli", "Sopralluogo speditivo VVF/Comune": "null", "Tipo danno": "Lesioni parte alta scala, interno abitazione solo intonaco caduto", "STRUTTURALE": "S" }, "geometry": { "type": "Point", "coordinates": [ 14.1248433, 40.8223335 ] } },
{ "type": "Feature", "properties": { "N.": "134", "Indirizzo": "VII Angelo Compagnone, 7", "Comune": "Pozzuoli", "Sopralluogo speditivo VVF/Comune": "null", "Tipo danno": "Lesioni esterne ed interne", "STRUTTURALE": "S" }, "geometry": { "type": "Point", "coordinates": [ 14.1248433, 40.8223335 ] } },
{ "type": "Feature", "properties": { "N.": "135", "Indirizzo": "Via Anfiteatro,3", "Comune": "Pozzuoli", "Sopralluogo speditivo VVF/Comune": "null", "Tipo danno": "Diffuse lesioni, porte bloccate, mattonelle cadute, calcinacci", "STRUTTURALE": "S" }, "geometry": { "type": "Point", "coordinates": [ 14.1253117, 40.8250429 ] } },
{ "type": "Feature", "properties": { "N.": "136", "Indirizzo": "Via Vigna, 68/a", "Comune": "Pozzuoli", "Sopralluogo speditivo VVF/Comune": "null", "Tipo danno": "Lesioni orizzontali e verticali e caduta calcinacci", "STRUTTURALE": "S" }, "geometry": { "type": "Point", "coordinates": [ 14.1324333, 40.8279522 ] } },
{ "type": "Feature", "properties": { "N.": "137", "Indirizzo": "Traversa G. Diano, 7", "Comune": "Pozzuoli", "Sopralluogo speditivo VVF/Comune": "null", "Tipo danno": "Intonaco  staccato e spaccature pareti, lesioni passanti", "STRUTTURALE": "S" }, "geometry": { "type": "Point", "coordinates": [ 14.1259411, 40.8288451 ] } },
{ "type": "Feature", "properties": { "N.": "138", "Indirizzo": "Via Solfatara, 91", "Comune": "Pozzuoli", "Sopralluogo speditivo VVF/Comune": "null", "Tipo danno": "Diffuse crepe - presenza di due bambini invalidi", "STRUTTURALE": "S" }, "geometry": { "type": "Point", "coordinates": [ 14.1308777, 40.829531 ] } },
{ "type": "Feature", "properties": { "N.": "139", "Indirizzo": "Via R. Annecchino, 218", "Comune": "Pozzuoli", "Sopralluogo speditivo VVF/Comune": "null", "Tipo danno": "Lesioni diffuse", "STRUTTURALE": "S" }, "geometry": { "type": "Point", "coordinates": [ 14.1031744, 40.8342783 ] } },
{ "type": "Feature", "properties": { "N.": "140", "Indirizzo": "Via Terracciano, 19 - Isolato 19", "Comune": "Pozzuoli", "Sopralluogo speditivo VVF/Comune": "null", "Tipo danno": "Lesioni muri portanti, caduta calcinacci", "STRUTTURALE": "S" }, "geometry": { "type": "Point", "coordinates": [ 14.1210405, 40.8302976 ] } },
{ "type": "Feature", "properties": { "N.": "141", "Indirizzo": "Via Artiaco, 70", "Comune": "Pozzuoli", "Sopralluogo speditivo VVF/Comune": "null", "Tipo danno": "Lesioni interne", "STRUTTURALE": "S" }, "geometry": { "type": "Point", "coordinates": [ 14.1164268, 40.8326931 ] } },
{ "type": "Feature", "properties": { "N.": "142", "Indirizzo": "Via Giacinto Diano, 57", "Comune": "Pozzuoli", "Sopralluogo speditivo VVF/Comune": "null", "Tipo danno": "Lesione interne, calcinacci", "STRUTTURALE": "S" }, "geometry": { "type": "Point", "coordinates": [ 14.1259559, 40.8285686 ] } },
{ "type": "Feature", "properties": { "N.": "143", "Indirizzo": "Traversa Pisano, 32", "Comune": "Pozzuoli", "Sopralluogo speditivo VVF/Comune": "null", "Tipo danno": "rampa privata", "STRUTTURALE": "S" }, "geometry": { "type": "Point", "coordinates": [ 14.1189001, 40.8320998 ] } },
{ "type": "Feature", "properties": { "N.": "144", "Indirizzo": "Via Vecchia delle Vigne, 20", "Comune": "Pozzuoli", "Sopralluogo speditivo VVF/Comune": "null", "Tipo danno": "Lesioni interne ed esterne", "STRUTTURALE": "S" }, "geometry": { "type": "Point", "coordinates": [ 14.1303892, 40.8300383 ] } },
{ "type": "Feature", "properties": { "N.": "145", "Indirizzo": "Via Bognar, 63", "Comune": "Pozzuoli", "Sopralluogo speditivo VVF/Comune": "null", "Tipo danno": "Lesioni esterne ed interne", "STRUTTURALE": "S" }, "geometry": { "type": "Point", "coordinates": [ 14.1282586, 40.8304453 ] } },
{ "type": "Feature", "properties": { "N.": "146", "Indirizzo": "Via coste d'Agnano, 78", "Comune": "Pozzuoli", "Sopralluogo speditivo VVF/Comune": "null", "Tipo danno": "Lesioni esterne ed interne", "STRUTTURALE": "S" }, "geometry": { "type": "Point", "coordinates": [ 14.138831, 40.8324227 ] } },
{ "type": "Feature", "properties": { "N.": "147", "Indirizzo": "Traversa Solfatara, 11 - P.co D'Isanto", "Comune": "Pozzuoli", "Sopralluogo speditivo VVF/Comune": "null", "Tipo danno": "Lesioni esterne ed interne, calcinacci", "STRUTTURALE": "S" }, "geometry": { "type": "Point", "coordinates": [ 14.135923, 40.8310055 ] } },
{ "type": "Feature", "properties": { "N.": "148", "Indirizzo": "Traversa Giacinto Diano,11", "Comune": "Pozzuoli", "Sopralluogo speditivo VVF/Comune": "null", "Tipo danno": "Lesioni esterne ed interne", "STRUTTURALE": "S" }, "geometry": { "type": "Point", "coordinates": [ 14.126105, 40.8291156 ] } },
{ "type": "Feature", "properties": { "N.": "149", "Indirizzo": "Via Vecchia San Gennaro, 42 - P.co del Pino", "Comune": "Pozzuoli", "Sopralluogo speditivo VVF/Comune": "null", "Tipo danno": "Lesioni esterne ed interne", "STRUTTURALE": "S" }, "geometry": { "type": "Point", "coordinates": [ 14.1269027, 40.8247948 ] } },
{ "type": "Feature", "properties": { "N.": "150", "Indirizzo": "Via Artiaco, I cavalcavia", "Comune": "Pozzuoli", "Sopralluogo speditivo VVF/Comune": "null", "Tipo danno": "Lesioni esterne ed interne", "STRUTTURALE": "S" }, "geometry": { "type": "Point", "coordinates": [ 14.1159912, 40.8367087 ] } },
{ "type": "Feature", "properties": { "N.": "151", "Indirizzo": "Via Pergolesi,40 - Direttissima 4", "Comune": "Pozzuoli", "Sopralluogo speditivo VVF/Comune": "null", "Tipo danno": "Lesioni esterne ed interne", "STRUTTURALE": "S" }, "geometry": { "type": "Point", "coordinates": [ 14.1218305, 40.825491 ] } },
{ "type": "Feature", "properties": { "N.": "152", "Indirizzo": "Corso Nicola Terracciano, 44", "Comune": "Pozzuoli", "Sopralluogo speditivo VVF/Comune": "null", "Tipo danno": "Lesioni varie", "STRUTTURALE": "S" }, "geometry": { "type": "Point", "coordinates": [ 14.1238852, 40.8266253 ] } },
{ "type": "Feature", "properties": { "N.": "153", "Indirizzo": "Dante Alighieri, 31", "Comune": "Pozzuoli", "Sopralluogo speditivo VVF/Comune": "null", "Tipo danno": "Lesioni esterne ed interne", "STRUTTURALE": "S" }, "geometry": { "type": "Point", "coordinates": [ 14.1227994, 40.8264279 ] } },
{ "type": "Feature", "properties": { "N.": "154", "Indirizzo": "Via Solfatara,35 - P.co Cavaliere - Sc.A", "Comune": "Pozzuoli", "Sopralluogo speditivo VVF/Comune": "null", "Tipo danno": "Lesioni varie", "STRUTTURALE": "S" }, "geometry": { "type": "Point", "coordinates": [ 14.1282679, 40.8289163 ] } },
{ "type": "Feature", "properties": { "N.": "155", "Indirizzo": "II Traversa Costa D'Agnano, 76", "Comune": "Pozzuoli", "Sopralluogo speditivo VVF/Comune": "null", "Tipo danno": "Lesioni varie", "STRUTTURALE": "S" }, "geometry": { "type": "Point", "coordinates": [ 14.138831, 40.8324227 ] } },
{ "type": "Feature", "properties": { "N.": "156", "Indirizzo": "II Traversa Costa D'Agnano, 76", "Comune": "Pozzuoli", "Sopralluogo speditivo VVF/Comune": "null", "Tipo danno": "Lesioni varie", "STRUTTURALE": "S" }, "geometry": { "type": "Point", "coordinates": [ 14.138831, 40.8324227 ] } },
{ "type": "Feature", "properties": { "N.": "157", "Indirizzo": "Via Artiaco, 31", "Comune": "Pozzuoli", "Sopralluogo speditivo VVF/Comune": "null", "Tipo danno": "Lesioni esterne ed interne", "STRUTTURALE": "S" }, "geometry": { "type": "Point", "coordinates": [ 14.1162608, 40.8325133 ] } },
{ "type": "Feature", "properties": { "N.": "158", "Indirizzo": "Via Solfatara, 91", "Comune": "Pozzuoli", "Sopralluogo speditivo VVF/Comune": "null", "Tipo danno": "Lesioni varie", "STRUTTURALE": "S" }, "geometry": { "type": "Point", "coordinates": [ 14.1308777, 40.829531 ] } },
{ "type": "Feature", "properties": { "N.": "159", "Indirizzo": "Via Giacinto diano, 27", "Comune": "Pozzuoli", "Sopralluogo speditivo VVF/Comune": "null", "Tipo danno": "Caduta calcinacci, palazzo in c.a. e lesioni alle scale", "STRUTTURALE": "S" }, "geometry": { "type": "Point", "coordinates": [ 14.1235772, 40.8281025 ] } },
{ "type": "Feature", "properties": { "N.": "160", "Indirizzo": "Rione Ortodonico, 17", "Comune": "Pozzuoli", "Sopralluogo speditivo VVF/Comune": "null", "Tipo danno": "Lesioni alle pareti, Intonaco caduto", "STRUTTURALE": "S" }, "geometry": { "type": "Point", "coordinates": [ 14.1289317, 40.8236205 ] } },
{ "type": "Feature", "properties": { "N.": "161", "Indirizzo": "Via Terracciano,19 - Isolato 11", "Comune": "Pozzuoli", "Sopralluogo speditivo VVF/Comune": "null", "Tipo danno": "Lesioni esterne ed interne", "STRUTTURALE": "S" }, "geometry": { "type": "Point", "coordinates": [ 14.1210405, 40.8302976 ] } },
{ "type": "Feature", "properties": { "N.": "162", "Indirizzo": "Via Quinto Fabio Massimo - SERVIZI SOCIALI", "Comune": "Pozzuoli", "Sopralluogo speditivo VVF/Comune": "null", "Tipo danno": "Crepe profonde aperte si vede anche dall' esterno", "STRUTTURALE": "S" }, "geometry": { "type": "Point", "coordinates": [ 14.0861428, 40.8457123 ] } },
{ "type": "Feature", "properties": { "N.": "163", "Indirizzo": "Via Tommaso Pollice", "Comune": "Pozzuoli", "Sopralluogo speditivo VVF/Comune": "null", "Tipo danno": "Lesione su tutta la parete con parato strappato", "STRUTTURALE": "S" }, "geometry": { "type": "Point", "coordinates": [ 14.09573, 40.83692 ] } },
{ "type": "Feature", "properties": { "N.": "164", "Indirizzo": "Via Girone, 38", "Comune": "Pozzuoli", "Sopralluogo speditivo VVF/Comune": "null", "Tipo danno": "Lesione alle murature", "STRUTTURALE": "S" }, "geometry": { "type": "Point", "coordinates": [ 14.1085823, 40.8346487 ] } },
{ "type": "Feature", "properties": { "N.": "165", "Indirizzo": "Via Giacinto Diano,42", "Comune": "Pozzuoli", "Sopralluogo speditivo VVF/Comune": "null", "Tipo danno": "Lesioni diffuse molto grandi", "STRUTTURALE": "S" }, "geometry": { "type": "Point", "coordinates": [ 14.1251778, 40.8292137 ] } },
{ "type": "Feature", "properties": { "N.": "166", "Indirizzo": "Via Solfatara,35", "Comune": "Pozzuoli", "Sopralluogo speditivo VVF/Comune": "null", "Tipo danno": "Lesioni palazzo anni 70", "STRUTTURALE": "S" }, "geometry": { "type": "Point", "coordinates": [ 14.1282679, 40.8289163 ] } },
{ "type": "Feature", "properties": { "N.": "167", "Indirizzo": "Via Pergolesi, 152", "Comune": "Pozzuoli", "Sopralluogo speditivo VVF/Comune": "null", "Tipo danno": "Crepe sulle pareti", "STRUTTURALE": "S" }, "geometry": { "type": "Point", "coordinates": [ 14.1203769, 40.8297956 ] } },
{ "type": "Feature", "properties": { "N.": "168", "Indirizzo": "Via Matteotti, 29", "Comune": "Pozzuoli", "Sopralluogo speditivo VVF/Comune": "null", "Tipo danno": "Lesione profonda su facciata e cassa scala", "STRUTTURALE": "S" }, "geometry": { "type": "Point", "coordinates": [ 14.1236098, 40.8213568 ] } },
{ "type": "Feature", "properties": { "N.": "169", "Indirizzo": "Via Dante Alighieri, 25", "Comune": "Pozzuoli", "Sopralluogo speditivo VVF/Comune": "null", "Tipo danno": "Lesione da sottitto a pavimento", "STRUTTURALE": "S" }, "geometry": { "type": "Point", "coordinates": [ 14.1231089, 40.8260106 ] } },
{ "type": "Feature", "properties": { "N.": "170", "Indirizzo": "Via Girone, 12", "Comune": "Pozzuoli", "Sopralluogo speditivo VVF/Comune": "null", "Tipo danno": "Crepe e porte del locale che non si chiudono. Cedimento strutturale", "STRUTTURALE": "S" }, "geometry": { "type": "Point", "coordinates": [ 14.1085823, 40.8346487 ] } },
{ "type": "Feature", "properties": { "N.": "171", "Indirizzo": "Corso N. Terracciano, 10", "Comune": "Pozzuoli", "Sopralluogo speditivo VVF/Comune": "null", "Tipo danno": "Lesioni vano scala", "STRUTTURALE": "S" }, "geometry": { "type": "Point", "coordinates": [ 14.1206183, 40.8302253 ] } },
{ "type": "Feature", "properties": { "N.": "172", "Indirizzo": "Via Girone, 26", "Comune": "Pozzuoli", "Sopralluogo speditivo VVF/Comune": "null", "Tipo danno": "Appartamento lesionato", "STRUTTURALE": "S" }, "geometry": { "type": "Point", "coordinates": [ 14.1085823, 40.8346487 ] } },
{ "type": "Feature", "properties": { "N.": "173", "Indirizzo": "Via Montenuovo Licola Patria, 63", "Comune": "Pozzuoli", "Sopralluogo speditivo VVF/Comune": "null", "Tipo danno": "Lesioni su struttura in tufo", "STRUTTURALE": "S" }, "geometry": { "type": "Point", "coordinates": [ 14.0956759, 40.8350959 ] } },
{ "type": "Feature", "properties": { "N.": "174", "Indirizzo": "Via San Gennaro Agnano, 20", "Comune": "Pozzuoli", "Sopralluogo speditivo VVF/Comune": "null", "Tipo danno": "Lesione su muratura in tufo e distacco marmi.", "STRUTTURALE": "S" }, "geometry": { "type": "Point", "coordinates": [ 14.1379975, 40.8230761 ] } },
{ "type": "Feature", "properties": { "N.": "175", "Indirizzo": "Via Celle, 17/D", "Comune": "Pozzuoli", "Sopralluogo speditivo VVF/Comune": "null", "Tipo danno": "Lesioni strutture in cemento armato", "STRUTTURALE": "S" }, "geometry": { "type": "Point", "coordinates": [ 14.1197753, 40.8315939 ] } },
{ "type": "Feature", "properties": { "N.": "176", "Indirizzo": "Via Catullo, 51", "Comune": "Pozzuoli", "Sopralluogo speditivo VVF/Comune": "null", "Tipo danno": "Assistenza disabile", "STRUTTURALE": "S" }, "geometry": { "type": "Point", "coordinates": [ 14.088071, 40.845467 ] } },
{ "type": "Feature", "properties": { "N.": "177", "Indirizzo": "Via Carlo Pisacane, 3", "Comune": "Pozzuoli", "Sopralluogo speditivo VVF/Comune": "null", "Tipo danno": "Palazzina sgomeberata - Persone sprovvisti di effetti personali", "STRUTTURALE": "S" }, "geometry": { "type": "Point", "coordinates": [ 14.1227612, 40.8252281 ] } },
{ "type": "Feature", "properties": { "N.": "178", "Indirizzo": "Via Oberdan, 16", "Comune": "Pozzuoli", "Sopralluogo speditivo VVF/Comune": "null", "Tipo danno": "Lesioni interne abitazioni", "STRUTTURALE": "S" }, "geometry": { "type": "Point", "coordinates": [ 14.1238051, 40.8262126 ] } },
{ "type": "Feature", "properties": { "N.": "179", "Indirizzo": "II Traversa Coste di Agnano", "Comune": "Pozzuoli", "Sopralluogo speditivo VVF/Comune": "null", "Tipo danno": "Lesioni interne mura portanti", "STRUTTURALE": "S" }, "geometry": { "type": "Point", "coordinates": [ 14.137621, 40.8313937 ] } },
{ "type": "Feature", "properties": { "N.": "180", "Indirizzo": "Via Solfatara, 70 - Villa Cavaliere", "Comune": "Pozzuoli", "Sopralluogo speditivo VVF/Comune": "null", "Tipo danno": "Lesioni interne vano scala", "STRUTTURALE": "S" }, "geometry": { "type": "Point", "coordinates": [ 14.1328816, 40.8284564 ] } },
{ "type": "Feature", "properties": { "N.": "181", "Indirizzo": "Via Solfatara, 101/H", "Comune": "Pozzuoli", "Sopralluogo speditivo VVF/Comune": "null", "Tipo danno": "Lesione sui muri portanti", "STRUTTURALE": "S" }, "geometry": { "type": "Point", "coordinates": [ 14.1315259, 40.829421 ] } },
{ "type": "Feature", "properties": { "N.": "182", "Indirizzo": "Via Solfatara, 35", "Comune": "Pozzuoli", "Sopralluogo speditivo VVF/Comune": "null", "Tipo danno": "Lesioni interne abitazioni", "STRUTTURALE": "S" }, "geometry": { "type": "Point", "coordinates": [ 14.1282679, 40.8289163 ] } },
{ "type": "Feature", "properties": { "N.": "183", "Indirizzo": "Via Traversa Solfatara, 115 - scala L", "Comune": "Pozzuoli", "Sopralluogo speditivo VVF/Comune": "null", "Tipo danno": "Lesioni interne e caduta calcinacci", "STRUTTURALE": "S" }, "geometry": { "type": "Point", "coordinates": [ 14.1350055, 40.8310588 ] } },
{ "type": "Feature", "properties": { "N.": "184", "Indirizzo": "Via Solfatara, 101 - Parco Di Bonito", "Comune": "Pozzuoli", "Sopralluogo speditivo VVF/Comune": "null", "Tipo danno": "Caduta calcinacci interna palazzo", "STRUTTURALE": "S" }, "geometry": { "type": "Point", "coordinates": [ 14.1315259, 40.829421 ] } },
{ "type": "Feature", "properties": { "N.": "185", "Indirizzo": "Via Raimondo Annecchino, 154", "Comune": "Pozzuoli", "Sopralluogo speditivo VVF/Comune": "null", "Tipo danno": "Lesioni gravi interne ed esterne", "STRUTTURALE": "S" }, "geometry": { "type": "Point", "coordinates": [ 14.1077105, 40.8341001 ] } },
{ "type": "Feature", "properties": { "N.": "186", "Indirizzo": "Via Serapide, 11", "Comune": "Pozzuoli", "Sopralluogo speditivo VVF/Comune": "null", "Tipo danno": "Lesioni interne pilastri", "STRUTTURALE": "S" }, "geometry": { "type": "Point", "coordinates": [ 14.1200411, 40.8264996 ] } },
{ "type": "Feature", "properties": { "N.": "187", "Indirizzo": "Via Tobruk, 13", "Comune": "Pozzuoli", "Sopralluogo speditivo VVF/Comune": "null", "Tipo danno": "Lesioni interne", "STRUTTURALE": "S" }, "geometry": { "type": "Point", "coordinates": [ 14.1245587, 40.826934 ] } },
{ "type": "Feature", "properties": { "N.": "188", "Indirizzo": "II Traversa Coste D'Agnano, 78", "Comune": "Pozzuoli", "Sopralluogo speditivo VVF/Comune": "null", "Tipo danno": "Lesioni interne", "STRUTTURALE": "S" }, "geometry": { "type": "Point", "coordinates": [ 14.138831, 40.8324227 ] } },
{ "type": "Feature", "properties": { "N.": "189", "Indirizzo": "Via Girone, 46/A", "Comune": "Pozzuoli", "Sopralluogo speditivo VVF/Comune": "null", "Tipo danno": "Lesioni interne", "STRUTTURALE": "S" }, "geometry": { "type": "Point", "coordinates": [ 14.1085823, 40.8346487 ] } },
{ "type": "Feature", "properties": { "N.": "190", "Indirizzo": "Via Giacinto Diano, 7", "Comune": "Pozzuoli", "Sopralluogo speditivo VVF/Comune": "null", "Tipo danno": "Lesioni interne", "STRUTTURALE": "S" }, "geometry": { "type": "Point", "coordinates": [ 14.1233312, 40.8276751 ] } },
{ "type": "Feature", "properties": { "N.": "191", "Indirizzo": "I Traversa Cappuccini, 6", "Comune": "Pozzuoli", "Sopralluogo speditivo VVF/Comune": "null", "Tipo danno": "Lesioni interne", "STRUTTURALE": "S" }, "geometry": { "type": "Point", "coordinates": [ 14.1260533, 40.821536 ] } },
{ "type": "Feature", "properties": { "N.": "192", "Indirizzo": "Via Solfatara, 123/B", "Comune": "Pozzuoli", "Sopralluogo speditivo VVF/Comune": "null", "Tipo danno": "Lesioni interne ed esterne", "STRUTTURALE": "S" }, "geometry": { "type": "Point", "coordinates": [ 14.1329509, 40.8287749 ] } },
{ "type": "Feature", "properties": { "N.": "193", "Indirizzo": "Via Solfatara", "Comune": "Pozzuoli", "Sopralluogo speditivo VVF/Comune": "null", "Tipo danno": "Muro comunale vicino farmacia caduta pietre", "STRUTTURALE": "S" }, "geometry": { "type": "Point", "coordinates": [ 14.1370274, 40.8251354 ] } },
{ "type": "Feature", "properties": { "N.": "194", "Indirizzo": "Via Matteotti, 15", "Comune": "Pozzuoli", "Sopralluogo speditivo VVF/Comune": "null", "Tipo danno": "Lesioni interne", "STRUTTURALE": "S" }, "geometry": { "type": "Point", "coordinates": [ 14.1230252, 40.821406 ] } },
{ "type": "Feature", "properties": { "N.": "195", "Indirizzo": "Via Anfiteatro, 3", "Comune": "Pozzuoli", "Sopralluogo speditivo VVF/Comune": "null", "Tipo danno": "Lesioni interne su tramezzo e vano scala", "STRUTTURALE": "S" }, "geometry": { "type": "Point", "coordinates": [ 14.1253117, 40.8250429 ] } },
{ "type": "Feature", "properties": { "N.": "196", "Indirizzo": "Via Oberdan, 37/A", "Comune": "Pozzuoli", "Sopralluogo speditivo VVF/Comune": "null", "Tipo danno": "Lesioni interne ed esterne", "STRUTTURALE": "S" }, "geometry": { "type": "Point", "coordinates": [ 14.1226736, 40.8268894 ] } },
{ "type": "Feature", "properties": { "N.": "197", "Indirizzo": "Via Solfatara, 101 - P.co Di Bonito", "Comune": "Pozzuoli", "Sopralluogo speditivo VVF/Comune": "null", "Tipo danno": "Lesione interne abitazione", "STRUTTURALE": "S" }, "geometry": { "type": "Point", "coordinates": [ 14.1315259, 40.829421 ] } },
{ "type": "Feature", "properties": { "N.": "198", "Indirizzo": "Via Vicinale Cigliano, 20", "Comune": "Pozzuoli", "Sopralluogo speditivo VVF/Comune": "null", "Tipo danno": "Lesioni interne e calcinacci staccati dai muri perimetrali", "STRUTTURALE": "S" }, "geometry": { "type": "Point", "coordinates": [ 14.1263476, 40.8330111 ] } },
{ "type": "Feature", "properties": { "N.": "199", "Indirizzo": "Via Girone, 46/A", "Comune": "Pozzuoli", "Sopralluogo speditivo VVF/Comune": "null", "Tipo danno": "Perdita idrica - Tecnici sono intervenuti, ma persiste la perdita", "STRUTTURALE": "S" }, "geometry": { "type": "Point", "coordinates": [ 14.1085823, 40.8346487 ] } },
{ "type": "Feature", "properties": { "N.": "200", "Indirizzo": "Via Marino", "Comune": "Pozzuoli", "Sopralluogo speditivo VVF/Comune": "null", "Tipo danno": "Lesione interna", "STRUTTURALE": "S" }, "geometry": { "type": "Point", "coordinates": [ 14.1207494, 40.8250056 ] } },
{ "type": "Feature", "properties": { "N.": "201", "Indirizzo": "Via Savino Vitagliano, 11", "Comune": "Pozzuoli", "Sopralluogo speditivo VVF/Comune": "null", "Tipo danno": "Lesioni interne ed esterne", "STRUTTURALE": "S" }, "geometry": { "type": "Point", "coordinates": [ 14.1335012, 40.8211714 ] } },
{ "type": "Feature", "properties": { "N.": "202", "Indirizzo": "Viale bognar, 22", "Comune": "Pozzuoli", "Sopralluogo speditivo VVF/Comune": "null", "Tipo danno": "Crepe sui muri dell'appartamento", "STRUTTURALE": "S" }, "geometry": { "type": "Point", "coordinates": [ 14.1274966, 40.8290024 ] } },
{ "type": "Feature", "properties": { "N.": "203", "Indirizzo": "II Traversa Bognar, 1", "Comune": "Pozzuoli", "Sopralluogo speditivo VVF/Comune": "null", "Tipo danno": "Lesioni interne", "STRUTTURALE": "S" }, "geometry": { "type": "Point", "coordinates": [ 14.1270535, 40.8277321 ] } },
{ "type": "Feature", "properties": { "N.": "204", "Indirizzo": "Viale Bognar, 65", "Comune": "Pozzuoli", "Sopralluogo speditivo VVF/Comune": "null", "Tipo danno": "Caduta Calcinacci", "STRUTTURALE": "S" }, "geometry": { "type": "Point", "coordinates": [ 14.1283043, 40.8304681 ] } },
{ "type": "Feature", "properties": { "N.": "205", "Indirizzo": "Via Artiaco - Is. 5", "Comune": "Pozzuoli", "Sopralluogo speditivo VVF/Comune": "null", "Tipo danno": "Lesioni Vano scala - Scala I", "STRUTTURALE": "S" }, "geometry": { "type": "Point", "coordinates": [ 14.1159912, 40.8367087 ] } },
{ "type": "Feature", "properties": { "N.": "206", "Indirizzo": "Via Spezzata Tranvai, 14 - int.5", "Comune": "Pozzuoli", "Sopralluogo speditivo VVF/Comune": "null", "Tipo danno": "Muro con crepe", "STRUTTURALE": "S" }, "geometry": { "type": "Point", "coordinates": [ 14.1241984, 40.821867 ] } },
{ "type": "Feature", "properties": { "N.": "207", "Indirizzo": "Via Alfonso Artiaco, 114 - is.7 - Scala R", "Comune": "Pozzuoli", "Sopralluogo speditivo VVF/Comune": "null", "Tipo danno": "crepe interne ed esterne", "STRUTTURALE": "S" }, "geometry": { "type": "Point", "coordinates": [ 14.116276, 40.8334389 ] } },
{ "type": "Feature", "properties": { "N.": "208", "Indirizzo": "Via Celle, 15 - Secondo piano", "Comune": "Pozzuoli", "Sopralluogo speditivo VVF/Comune": "null", "Tipo danno": "crepe interne ed esterne", "STRUTTURALE": "S" }, "geometry": { "type": "Point", "coordinates": [ 14.1200242, 40.8320194 ] } },
{ "type": "Feature", "properties": { "N.": "209", "Indirizzo": "Via Celle, 15 - Primo Piano", "Comune": "Pozzuoli", "Sopralluogo speditivo VVF/Comune": "null", "Tipo danno": "Crepe Interne", "STRUTTURALE": "S" }, "geometry": { "type": "Point", "coordinates": [ 14.1200242, 40.8320194 ] } },
{ "type": "Feature", "properties": { "N.": "210", "Indirizzo": "Via Vecchia Campana, 68 - P.co De Luca", "Comune": "Pozzuoli", "Sopralluogo speditivo VVF/Comune": "null", "Tipo danno": "Parete Portante con lesione", "STRUTTURALE": "S" }, "geometry": { "type": "Point", "coordinates": [ 14.1182547, 40.8418323 ] } },
{ "type": "Feature", "properties": { "N.": "211", "Indirizzo": "Via Artiaco, 132", "Comune": "Pozzuoli", "Sopralluogo speditivo VVF/Comune": "null", "Tipo danno": "Varie crepe", "STRUTTURALE": "S" }, "geometry": { "type": "Point", "coordinates": [ 14.1159922, 40.8356476 ] } },
{ "type": "Feature", "properties": { "N.": "212", "Indirizzo": "Traversa Giacinto Diano, 7", "Comune": "Pozzuoli", "Sopralluogo speditivo VVF/Comune": "null", "Tipo danno": "Varie crepe interne", "STRUTTURALE": "S" }, "geometry": { "type": "Point", "coordinates": [ 14.1259411, 40.8288451 ] } },
{ "type": "Feature", "properties": { "N.": "213", "Indirizzo": "Via Solfatara, 101 -Palazzo Di Bonito", "Comune": "Pozzuoli", "Sopralluogo speditivo VVF/Comune": "null", "Tipo danno": "Lesioni vano Scala", "STRUTTURALE": "S" }, "geometry": { "type": "Point", "coordinates": [ 14.1315259, 40.829421 ] } },
{ "type": "Feature", "properties": { "N.": "214", "Indirizzo": "Viale Cappuccini, 10", "Comune": "Pozzuoli", "Sopralluogo speditivo VVF/Comune": "null", "Tipo danno": "Lesioni con caduta calcinacci sia interni che esterni", "STRUTTURALE": "S" }, "geometry": { "type": "Point", "coordinates": [ 14.1261128, 40.8220622 ] } },
{ "type": "Feature", "properties": { "N.": "215", "Indirizzo": "Via Vicinale Monte Barbaro 51 (traversa di via Artiaco)", "Comune": "Pozzuoli", "Sopralluogo speditivo VVF/Comune": "null", "Tipo danno": "Lesioni interne ed esterne", "STRUTTURALE": "S" }, "geometry": { "type": "Point", "coordinates": [ 14.1156632, 40.8335664 ] } },
{ "type": "Feature", "properties": { "N.": "216", "Indirizzo": "Cosro Umberto, 151/D", "Comune": "Pozzuoli", "Sopralluogo speditivo VVF/Comune": "null", "Tipo danno": "Lesioni interne ed esterne", "STRUTTURALE": "S" }, "geometry": { "type": "Point", "coordinates": [ 14.132377, 40.821012 ] } },
{ "type": "Feature", "properties": { "N.": "217", "Indirizzo": "P.co Olivetti, 19", "Comune": "Pozzuoli", "Sopralluogo speditivo VVF/Comune": "null", "Tipo danno": "Lesioni interne ed esterne", "STRUTTURALE": "S" }, "geometry": { "type": "Point", "coordinates": [ 14.1085823, 40.8346487 ] } },
{ "type": "Feature", "properties": { "N.": "218", "Indirizzo": "Corso Nicola Terracciano, 67", "Comune": "Pozzuoli", "Sopralluogo speditivo VVF/Comune": "null", "Tipo danno": "Lesioni interne ed esterne", "STRUTTURALE": "S" }, "geometry": { "type": "Point", "coordinates": [ 14.1240484, 40.826829 ] } },
{ "type": "Feature", "properties": { "N.": "219", "Indirizzo": "Corso Nicola Terracciano, 67", "Comune": "Pozzuoli", "Sopralluogo speditivo VVF/Comune": "null", "Tipo danno": "Lesioni interne ed esterne", "STRUTTURALE": "S" }, "geometry": { "type": "Point", "coordinates": [ 14.1240484, 40.826829 ] } },
{ "type": "Feature", "properties": { "N.": "220", "Indirizzo": "Via Celle, 17/D", "Comune": "Pozzuoli", "Sopralluogo speditivo VVF/Comune": "null", "Tipo danno": "Lesioni interne ed esterne", "STRUTTURALE": "S" }, "geometry": { "type": "Point", "coordinates": [ 14.1197753, 40.8315939 ] } },
{ "type": "Feature", "properties": { "N.": "221", "Indirizzo": "II Traversa Coste D'Agnano - Rione Solfatara", "Comune": "Pozzuoli", "Sopralluogo speditivo VVF/Comune": "null", "Tipo danno": "Lesioni interne ed esterne", "STRUTTURALE": "S" }, "geometry": { "type": "Point", "coordinates": [ 14.137621, 40.8313937 ] } },
{ "type": "Feature", "properties": { "N.": "222", "Indirizzo": "Via Vecchia San Gennaro, 143", "Comune": "Pozzuoli", "Sopralluogo speditivo VVF/Comune": "null", "Tipo danno": "Lesioni interne ed esterne", "STRUTTURALE": "S" }, "geometry": { "type": "Point", "coordinates": [ 14.1301286, 40.824868 ] } },
{ "type": "Feature", "properties": { "N.": "223", "Indirizzo": "Via Campi Flegrei, 68", "Comune": "Pozzuoli", "Sopralluogo speditivo VVF/Comune": "null", "Tipo danno": "Lesioni interne ed esterne", "STRUTTURALE": "S" }, "geometry": { "type": "Point", "coordinates": [ 14.0989573, 40.8346717 ] } },
{ "type": "Feature", "properties": { "N.": "224", "Indirizzo": "Via Solfatara. 101 - P.co Di Bonito", "Comune": "Pozzuoli", "Sopralluogo speditivo VVF/Comune": "null", "Tipo danno": "Lesioni interne ed esterne", "STRUTTURALE": "S" }, "geometry": { "type": "Point", "coordinates": [ 14.1315259, 40.829421 ] } },
{ "type": "Feature", "properties": { "N.": "225", "Indirizzo": "Via Pergolesi, 146", "Comune": "Pozzuoli", "Sopralluogo speditivo VVF/Comune": "null", "Tipo danno": "Lesioni interne ed esterne", "STRUTTURALE": "S" }, "geometry": { "type": "Point", "coordinates": [ 14.1204155, 40.8296562 ] } },
{ "type": "Feature", "properties": { "N.": "226", "Indirizzo": "Via Solfatara,8 - Sc.B", "Comune": "Pozzuoli", "Sopralluogo speditivo VVF/Comune": "null", "Tipo danno": "Lesioni interne", "STRUTTURALE": "S" }, "geometry": { "type": "Point", "coordinates": [ 14.1264707, 40.8255646 ] } },
{ "type": "Feature", "properties": { "N.": "227", "Indirizzo": "Via Girone, 38", "Comune": "Pozzuoli", "Sopralluogo speditivo VVF/Comune": "null", "Tipo danno": "Lesioni interne ed esterne", "STRUTTURALE": "S" }, "geometry": { "type": "Point", "coordinates": [ 14.1085823, 40.8346487 ] } },
{ "type": "Feature", "properties": { "N.": "228", "Indirizzo": "Traversa Solfatara, 8", "Comune": "Pozzuoli", "Sopralluogo speditivo VVF/Comune": "null", "Tipo danno": "Lesioni interne ed esterne", "STRUTTURALE": "S" }, "geometry": { "type": "Point", "coordinates": [ 14.131296, 40.8302129 ] } },
{ "type": "Feature", "properties": { "N.": "229", "Indirizzo": "Via Tommaso Pollice, Fabb. 21", "Comune": "Pozzuoli", "Sopralluogo speditivo VVF/Comune": "null", "Tipo danno": "Lesioni interne ed esterne", "STRUTTURALE": "S" }, "geometry": { "type": "Point", "coordinates": [ 14.1247852, 40.8277603 ] } },
{ "type": "Feature", "properties": { "N.": "230", "Indirizzo": "null", "Comune": "Pozzuoli", "Sopralluogo speditivo VVF/Comune": "null", "Tipo danno": "Lesioni interne ed esterne", "STRUTTURALE": "S" }, "geometry": { "type": "Point", "coordinates": [ 14.1085823, 40.8346487 ] } },
{ "type": "Feature", "properties": { "N.": "231", "Indirizzo": "Viale Bognar, 22", "Comune": "Pozzuoli", "Sopralluogo speditivo VVF/Comune": "null", "Tipo danno": "Lesioni interne ed esterne", "STRUTTURALE": "S" }, "geometry": { "type": "Point", "coordinates": [ 14.1274966, 40.8290024 ] } },
{ "type": "Feature", "properties": { "N.": "232", "Indirizzo": "Via Raimondo Annecchino, 154", "Comune": "Pozzuoli", "Sopralluogo speditivo VVF/Comune": "null", "Tipo danno": "crepe", "STRUTTURALE": "S" }, "geometry": { "type": "Point", "coordinates": [ 14.1077105, 40.8341001 ] } },
{ "type": "Feature", "properties": { "N.": "233", "Indirizzo": "Corso Terracciano, isolato 22", "Comune": "Pozzuoli", "Sopralluogo speditivo VVF/Comune": "null", "Tipo danno": "lesioni muri portanti e tramezzi - già segnalato stanotte", "STRUTTURALE": "S" }, "geometry": { "type": "Point", "coordinates": [ 14.1226511, 40.8280412 ] } },
{ "type": "Feature", "properties": { "N.": "234", "Indirizzo": "via Fasano, 6", "Comune": "Pozzuoli", "Sopralluogo speditivo VVF/Comune": "null", "Tipo danno": "lesioni in appartamento", "STRUTTURALE": "S" }, "geometry": { "type": "Point", "coordinates": [ 14.1191994, 40.8274688 ] } },
{ "type": "Feature", "properties": { "N.": "235", "Indirizzo": "via Artiaco, 31", "Comune": "Pozzuoli", "Sopralluogo speditivo VVF/Comune": "null", "Tipo danno": "pareti lesionate", "STRUTTURALE": "S" }, "geometry": { "type": "Point", "coordinates": [ 14.1162608, 40.8325133 ] } },
{ "type": "Feature", "properties": { "N.": "236", "Indirizzo": "via Campi Flegrei, 78", "Comune": "Pozzuoli", "Sopralluogo speditivo VVF/Comune": "null", "Tipo danno": "caduta intonaco nel vano scala", "STRUTTURALE": "S" }, "geometry": { "type": "Point", "coordinates": [ 14.0982874, 40.8343052 ] } },
{ "type": "Feature", "properties": { "N.": "237", "Indirizzo": "via Traversa Pisano, 8", "Comune": "Pozzuoli", "Sopralluogo speditivo VVF/Comune": "null", "Tipo danno": "crepe nei muri divisori delle stanze", "STRUTTURALE": "S" }, "geometry": { "type": "Point", "coordinates": [ 14.1182952, 40.832167899999988 ] } },
{ "type": "Feature", "properties": { "N.": "238", "Indirizzo": "Traaversa Giacinto Diano, 42", "Comune": "Pozzuoli", "Sopralluogo speditivo VVF/Comune": "null", "Tipo danno": "crepe rilevanti interne ed esterne", "STRUTTURALE": "S" }, "geometry": { "type": "Point", "coordinates": [ 14.1263836, 40.8291414 ] } },
{ "type": "Feature", "properties": { "N.": "239", "Indirizzo": "via Vecchia San gennaro, 153/a", "Comune": "Pozzuoli", "Sopralluogo speditivo VVF/Comune": "null", "Tipo danno": "spaccate verticali tra n 2 stanze", "STRUTTURALE": "S" }, "geometry": { "type": "Point", "coordinates": [ 14.1318195, 40.8248687 ] } },
{ "type": "Feature", "properties": { "N.": "240", "Indirizzo": "via Vecchia San Gennaro, 101", "Comune": "Pozzuoli", "Sopralluogo speditivo VVF/Comune": "null", "Tipo danno": "lesioni", "STRUTTURALE": "S" }, "geometry": { "type": "Point", "coordinates": [ 14.1286151, 40.8248375 ] } },
{ "type": "Feature", "properties": { "N.": "241", "Indirizzo": "via Giacinto Diano, 43 interno 2", "Comune": "Pozzuoli", "Sopralluogo speditivo VVF/Comune": "null", "Tipo danno": "spaccati tramezzi appartamento", "STRUTTURALE": "S" }, "geometry": { "type": "Point", "coordinates": [ 14.1252164, 40.829245 ] } },
{ "type": "Feature", "properties": { "N.": "242", "Indirizzo": "via Tommaso Pollice, 3", "Comune": "Pozzuoli", "Sopralluogo speditivo VVF/Comune": "null", "Tipo danno": "lesione", "STRUTTURALE": "S" }, "geometry": { "type": "Point", "coordinates": [ 14.09573, 40.83692 ] } },
{ "type": "Feature", "properties": { "N.": "243", "Indirizzo": "viale dei Pini Nord, 5", "Comune": "Pozzuoli", "Sopralluogo speditivo VVF/Comune": "null", "Tipo danno": "lesioni", "STRUTTURALE": "S" }, "geometry": { "type": "Point", "coordinates": [ 14.0448986, 40.906647199999988 ] } },
{ "type": "Feature", "properties": { "N.": "244", "Indirizzo": "Condominio II traversa via Giacinto Diano, 10, 24 e 42", "Comune": "Pozzuoli", "Sopralluogo speditivo VVF/Comune": "null", "Tipo danno": "lesioni interne ed esterne", "STRUTTURALE": "S" }, "geometry": { "type": "Point", "coordinates": [ 14.1231961, 40.827430199999988 ] } },
{ "type": "Feature", "properties": { "N.": "245", "Indirizzo": "via Oberdan, 39", "Comune": "Pozzuoli", "Sopralluogo speditivo VVF/Comune": "null", "Tipo danno": "porta ingresso bloccata ed intonaco caduto", "STRUTTURALE": "S" }, "geometry": { "type": "Point", "coordinates": [ 14.1225379, 40.8270772 ] } },
{ "type": "Feature", "properties": { "N.": "246", "Indirizzo": "via Savino Vitagliano, 9/b", "Comune": "Pozzuoli", "Sopralluogo speditivo VVF/Comune": "null", "Tipo danno": "crepe aperte e caduta intonaco da balcone", "STRUTTURALE": "S" }, "geometry": { "type": "Point", "coordinates": [ 14.1335012, 40.8211714 ] } },
{ "type": "Feature", "properties": { "N.": "247", "Indirizzo": "via Sacchini, 14", "Comune": "Pozzuoli", "Sopralluogo speditivo VVF/Comune": "null", "Tipo danno": "grosse crepe su pavimento e apertura mura negli angoli", "STRUTTURALE": "S" }, "geometry": { "type": "Point", "coordinates": [ 14.1201702, 40.8270851 ] } },
{ "type": "Feature", "properties": { "N.": "248", "Indirizzo": "via Artiaco, 114", "Comune": "Pozzuoli", "Sopralluogo speditivo VVF/Comune": "null", "Tipo danno": "lesioni all'ingresso", "STRUTTURALE": "S" }, "geometry": { "type": "Point", "coordinates": [ 14.116276, 40.8334389 ] } },
{ "type": "Feature", "properties": { "N.": "249", "Indirizzo": "via Campi Flegrei, 40", "Comune": "Pozzuoli", "Sopralluogo speditivo VVF/Comune": "null", "Tipo danno": "lesioni in casa - bambina disabile in sedia a rotelle che vuole rientrare in casa", "STRUTTURALE": "S" }, "geometry": { "type": "Point", "coordinates": [ 14.1044093, 40.8353923 ] } },
{ "type": "Feature", "properties": { "N.": "250", "Indirizzo": "via Roma, 36", "Comune": "Pozzuoli", "Sopralluogo speditivo VVF/Comune": "null", "Tipo danno": "lesioni interne", "STRUTTURALE": "S" }, "geometry": { "type": "Point", "coordinates": [ 14.119622, 40.8265886 ] } },
{ "type": "Feature", "properties": { "N.": "251", "Indirizzo": "via Sergio Orata, 25, rione toiano", "Comune": "Pozzuoli", "Sopralluogo speditivo VVF/Comune": "null", "Tipo danno": "crepe nel portone evidenti", "STRUTTURALE": "S" }, "geometry": { "type": "Point", "coordinates": [ 14.0952243, 40.8438299 ] } },
{ "type": "Feature", "properties": { "N.": "252", "Indirizzo": "via Guglielmo Oberdan, 20", "Comune": "Pozzuoli", "Sopralluogo speditivo VVF/Comune": "null", "Tipo danno": "crepe in casa e nel vano scala", "STRUTTURALE": "S" }, "geometry": { "type": "Point", "coordinates": [ 14.123409, 40.826478 ] } },
{ "type": "Feature", "properties": { "N.": "253", "Indirizzo": "via Alfonso Artiaco, 134", "Comune": "Pozzuoli", "Sopralluogo speditivo VVF/Comune": "null", "Tipo danno": "crepe muro maestro vano scala e lesioni in casa", "STRUTTURALE": "S" }, "geometry": { "type": "Point", "coordinates": [ 14.1159846, 40.8356749 ] } },
{ "type": "Feature", "properties": { "N.": "254", "Indirizzo": "via Traversa Pisano, 19", "Comune": "Pozzuoli", "Sopralluogo speditivo VVF/Comune": "null", "Tipo danno": "lesioni porte e crepe portone", "STRUTTURALE": "S" }, "geometry": { "type": "Point", "coordinates": [ 14.1187593, 40.8317413 ] } },
{ "type": "Feature", "properties": { "N.": "255", "Indirizzo": "via Traversa Solfatara, 7 Parco D'Isanto", "Comune": "Pozzuoli", "Sopralluogo speditivo VVF/Comune": "null", "Tipo danno": "crepe dal soffitto al pavimento", "STRUTTURALE": "S" }, "geometry": { "type": "Point", "coordinates": [ 14.1313011, 40.8299212 ] } },
{ "type": "Feature", "properties": { "N.": "256", "Indirizzo": "via Vecchia San Gennaro, 149", "Comune": "Pozzuoli", "Sopralluogo speditivo VVF/Comune": "null", "Tipo danno": "lesioni interne", "STRUTTURALE": "S" }, "geometry": { "type": "Point", "coordinates": [ 14.1304612, 40.8247351 ] } },
{ "type": "Feature", "properties": { "N.": "257", "Indirizzo": "via Fondi di Cigliano, 20", "Comune": "Pozzuoli", "Sopralluogo speditivo VVF/Comune": "null", "Tipo danno": "assistenza per marito disabile allettato trasporto", "STRUTTURALE": "S" }, "geometry": { "type": "Point", "coordinates": [ 14.1256845, 40.8434558 ] } },
{ "type": "Feature", "properties": { "N.": "258", "Indirizzo": "via Corso Nicola Terracciano, 42", "Comune": "Pozzuoli", "Sopralluogo speditivo VVF/Comune": "null", "Tipo danno": "lesioni interne ed esterne", "STRUTTURALE": "S" }, "geometry": { "type": "Point", "coordinates": [ 14.1237099, 40.8267077 ] } },
{ "type": "Feature", "properties": { "N.": "259", "Indirizzo": "via Roma, 36", "Comune": "Pozzuoli", "Sopralluogo speditivo VVF/Comune": "null", "Tipo danno": "lesioni nel palazzo dell'abitazione", "STRUTTURALE": "S" }, "geometry": { "type": "Point", "coordinates": [ 14.119622, 40.8265886 ] } },
{ "type": "Feature", "properties": { "N.": "260", "Indirizzo": "via Pendio sant'elmo ,1", "Comune": "Pozzuoli", "Sopralluogo speditivo VVF/Comune": "null", "Tipo danno": "gravi lesioni scale con lesioni annessa appartamento", "STRUTTURALE": "S" }, "geometry": { "type": "Point", "coordinates": [ 14.1317363, 40.8317875 ] } },
{ "type": "Feature", "properties": { "N.": "261", "Indirizzo": "via Miliscola, 424", "Comune": "Pozzuoli", "Sopralluogo speditivo VVF/Comune": "null", "Tipo danno": "lesioni interne allo stabile vano scala", "STRUTTURALE": "S" }, "geometry": { "type": "Point", "coordinates": [ 14.0935288, 40.8324388 ] } },
{ "type": "Feature", "properties": { "N.": "262", "Indirizzo": "Via Carlo Pisacane, 6", "Comune": "Pozzuoli", "Sopralluogo speditivo VVF/Comune": "null", "Tipo danno": "lesioni abitazione innalzamento pavimentazione che ostruisce apertura cancello", "STRUTTURALE": "S" }, "geometry": { "type": "Point", "coordinates": [ 14.122987, 40.825165600000012 ] } },
{ "type": "Feature", "properties": { "N.": "263", "Indirizzo": "Traversa Solfatara, 11-13 P.co D'Isanto", "Comune": "Pozzuoli", "Sopralluogo speditivo VVF/Comune": "null", "Tipo danno": "Lesione interne vano scala", "STRUTTURALE": "S" }, "geometry": { "type": "Point", "coordinates": [ 14.135923, 40.8310055 ] } },
{ "type": "Feature", "properties": { "N.": "264", "Indirizzo": "Condominio Via Solfatara, 49", "Comune": "Pozzuoli", "Sopralluogo speditivo VVF/Comune": "null", "Tipo danno": "lesioni interne ed esterne", "STRUTTURALE": "S" }, "geometry": { "type": "Point", "coordinates": [ 14.1258402, 40.8248621 ] } },
{ "type": "Feature", "properties": { "N.": "265", "Indirizzo": "Via Vecchia delle Vigna, 30", "Comune": "Pozzuoli", "Sopralluogo speditivo VVF/Comune": "null", "Tipo danno": "lesione interne muro portante", "STRUTTURALE": "S" }, "geometry": { "type": "Point", "coordinates": [ 14.1316265, 40.8306134 ] } },
{ "type": "Feature", "properties": { "N.": "266", "Indirizzo": "Via Solfatara, 31", "Comune": "Pozzuoli", "Sopralluogo speditivo VVF/Comune": "null", "Tipo danno": "Sigilli all'abitazione", "STRUTTURALE": "S" }, "geometry": { "type": "Point", "coordinates": [ 14.127715, 40.8282926 ] } },
{ "type": "Feature", "properties": { "N.": "267", "Indirizzo": "Via Sergio Orata, 17", "Comune": "Pozzuoli", "Sopralluogo speditivo VVF/Comune": "null", "Tipo danno": "Crepe ingterne all'edificio", "STRUTTURALE": "S" }, "geometry": { "type": "Point", "coordinates": [ 14.0944151, 40.843979399999988 ] } },
{ "type": "Feature", "properties": { "N.": "268", "Indirizzo": "Via Giambattista Pergolesi, 144", "Comune": "Pozzuoli", "Sopralluogo speditivo VVF/Comune": "null", "Tipo danno": "Lesioni interne all'abitazione, caduta di calcinacci", "STRUTTURALE": "S" }, "geometry": { "type": "Point", "coordinates": [ 14.1205984, 40.8294735 ] } },
{ "type": "Feature", "properties": { "N.": "269", "Indirizzo": "Via Alfonso Artiaco, 114", "Comune": "Pozzuoli", "Sopralluogo speditivo VVF/Comune": "null", "Tipo danno": "Spaccature sulle parete divisorie", "STRUTTURALE": "S" }, "geometry": { "type": "Point", "coordinates": [ 14.116276, 40.8334389 ] } },
{ "type": "Feature", "properties": { "N.": "270", "Indirizzo": "Traversa Giacinto Diano, 42", "Comune": "Pozzuoli", "Sopralluogo speditivo VVF/Comune": "null", "Tipo danno": "Porte di ingresso delle abitazioni bloccate", "STRUTTURALE": "S" }, "geometry": { "type": "Point", "coordinates": [ 14.1263836, 40.8291414 ] } },
{ "type": "Feature", "properties": { "N.": "271", "Indirizzo": "Via Vecchia delle Vigne, 28", "Comune": "Pozzuoli", "Sopralluogo speditivo VVF/Comune": "null", "Tipo danno": "Secondo piano crepe alle pareti esterne - Ed. in c.a.", "STRUTTURALE": "S" }, "geometry": { "type": "Point", "coordinates": [ 14.1314455, 40.8304929 ] } },
{ "type": "Feature", "properties": { "N.": "272", "Indirizzo": "Via Solfatara, 49", "Comune": "Pozzuoli", "Sopralluogo speditivo VVF/Comune": "null", "Tipo danno": "Pareti con lesioni profonde, sia pareti portanti che divisorie piano terra", "STRUTTURALE": "S" }, "geometry": { "type": "Point", "coordinates": [ 14.1258402, 40.8248621 ] } },
{ "type": "Feature", "properties": { "N.": "273", "Indirizzo": "I traversa Miliscola, 3 Arco Felice", "Comune": "Pozzuoli", "Sopralluogo speditivo VVF/Comune": "null", "Tipo danno": "Intonaco crepe piano rialzato", "STRUTTURALE": "S" }, "geometry": { "type": "Point", "coordinates": [ 14.0973221, 40.8339038 ] } },
{ "type": "Feature", "properties": { "N.": "274", "Indirizzo": "Via Vecchia delle Vigne, 11 Parco Cuma Villa, 27", "Comune": "Pozzuoli", "Sopralluogo speditivo VVF/Comune": "null", "Tipo danno": "Crepa al pilastro portante piano terra", "STRUTTURALE": "S" }, "geometry": { "type": "Point", "coordinates": [ 14.1339077, 40.8339039 ] } },
{ "type": "Feature", "properties": { "N.": "275", "Indirizzo": "Via Giacinto Diano, 25", "Comune": "Pozzuoli", "Sopralluogo speditivo VVF/Comune": "null", "Tipo danno": "Crepe sui muri, cadute di calcinacci", "STRUTTURALE": "S" }, "geometry": { "type": "Point", "coordinates": [ 14.1235481, 40.8280166 ] } },
{ "type": "Feature", "properties": { "N.": "276", "Indirizzo": "Via Pergolesi, 90", "Comune": "Pozzuoli", "Sopralluogo speditivo VVF/Comune": "null", "Tipo danno": "Lesione delle pareti anche ai muri portanti - muro di contenimento crollato e sta comprimendo l'edificio - Persona con disabilità", "STRUTTURALE": "S" }, "geometry": { "type": "Point", "coordinates": [ 14.1220279, 40.827066599999988 ] } },
{ "type": "Feature", "properties": { "N.": "277", "Indirizzo": "Via Solfatara, 49", "Comune": "Pozzuoli", "Sopralluogo speditivo VVF/Comune": "null", "Tipo danno": "Lesioni alle pareti interne appartamento I piano", "STRUTTURALE": "S" }, "geometry": { "type": "Point", "coordinates": [ 14.1258402, 40.8248621 ] } },
{ "type": "Feature", "properties": { "N.": "278", "Indirizzo": "Viale Bognar, 63", "Comune": "Pozzuoli", "Sopralluogo speditivo VVF/Comune": "null", "Tipo danno": "Appartamento III piano. Abitanti fuori dall'abitazione", "STRUTTURALE": "S" }, "geometry": { "type": "Point", "coordinates": [ 14.1282586, 40.8304453 ] } },
{ "type": "Feature", "properties": { "N.": "279", "Indirizzo": "Via Vecchia delle Vigne, 28", "Comune": "Pozzuoli", "Sopralluogo speditivo VVF/Comune": "null", "Tipo danno": "Laboratorio di ceramica, crepe sulle pareti divispre PT, abitazione al piano superiore", "STRUTTURALE": "S" }, "geometry": { "type": "Point", "coordinates": [ 14.1314455, 40.8304929 ] } },
{ "type": "Feature", "properties": { "N.": "280", "Indirizzo": "Corso Terracciano 19, isolato 29", "Comune": "Pozzuoli", "Sopralluogo speditivo VVF/Comune": "null", "Tipo danno": "Lesione pareti casa, calcinacci", "STRUTTURALE": "S" }, "geometry": { "type": "Point", "coordinates": [ 14.1210405, 40.8302976 ] } },
{ "type": "Feature", "properties": { "N.": "281", "Indirizzo": "Via Licola Patria 1, Trav. Montenuovo, 49", "Comune": "Pozzuoli", "Sopralluogo speditivo VVF/Comune": "null", "Tipo danno": "Lesioni Esterne e Interne", "STRUTTURALE": "S" }, "geometry": { "type": "Point", "coordinates": [ 14.0977058, 40.8338898 ] } },
{ "type": "Feature", "properties": { "N.": "282", "Indirizzo": "Via 2 Traversa Coste di Agnano, 37", "Comune": "Pozzuoli", "Sopralluogo speditivo VVF/Comune": "null", "Tipo danno": "Lesioni interne e Esterne", "STRUTTURALE": "S" }, "geometry": { "type": "Point", "coordinates": [ 14.138831, 40.8324227 ] } },
{ "type": "Feature", "properties": { "N.": "283", "Indirizzo": "Viale Cappuccini, 5", "Comune": "Pozzuoli", "Sopralluogo speditivo VVF/Comune": "null", "Tipo danno": "Lesioni Interne", "STRUTTURALE": "S" }, "geometry": { "type": "Point", "coordinates": [ 14.1260992, 40.8225659 ] } },
{ "type": "Feature", "properties": { "N.": "284", "Indirizzo": "Via Girone, 5", "Comune": "Pozzuoli", "Sopralluogo speditivo VVF/Comune": "null", "Tipo danno": "Lesioni Interne", "STRUTTURALE": "S" }, "geometry": { "type": "Point", "coordinates": [ 14.1085823, 40.8346487 ] } },
{ "type": "Feature", "properties": { "N.": "285", "Indirizzo": "Via Piercolesi, 52", "Comune": "Pozzuoli", "Sopralluogo speditivo VVF/Comune": "null", "Tipo danno": "Lesioni Interne", "STRUTTURALE": "S" }, "geometry": { "type": "Point", "coordinates": [ 14.1221866, 40.8259941 ] } },
{ "type": "Feature", "properties": { "N.": "286", "Indirizzo": "Via Raimondo Annecchino, 69", "Comune": "Pozzuoli", "Sopralluogo speditivo VVF/Comune": "null", "Tipo danno": "Lesioni struttura c.a.", "STRUTTURALE": "S" }, "geometry": { "type": "Point", "coordinates": [ 14.1037482, 40.8341213 ] } },
{ "type": "Feature", "properties": { "N.": "287", "Indirizzo": "Via Artiaco 114, scala M", "Comune": "Pozzuoli", "Sopralluogo speditivo VVF/Comune": "null", "Tipo danno": "Lesioni Interne", "STRUTTURALE": "S" }, "geometry": { "type": "Point", "coordinates": [ 14.116276, 40.8334389 ] } },
{ "type": "Feature", "properties": { "N.": "288", "Indirizzo": "Corso Umberto I, 29", "Comune": "Pozzuoli", "Sopralluogo speditivo VVF/Comune": "null", "Tipo danno": "Peggioramento lesioni giunto tra palazzi", "STRUTTURALE": "S" }, "geometry": { "type": "Point", "coordinates": [ 14.125944, 40.821523 ] } },
{ "type": "Feature", "properties": { "N.": "289", "Indirizzo": "Rampa Aurelio Saffi, 2", "Comune": "Pozzuoli", "Sopralluogo speditivo VVF/Comune": "null", "Tipo danno": "Lesione Vano scala", "STRUTTURALE": "S" }, "geometry": { "type": "Point", "coordinates": [ 14.1237357, 40.8250908 ] } },
{ "type": "Feature", "properties": { "N.": "290", "Indirizzo": "Giacinto Diana, 11", "Comune": "Pozzuoli", "Sopralluogo speditivo VVF/Comune": "null", "Tipo danno": "Lesione Interne Pareti", "STRUTTURALE": "S" }, "geometry": { "type": "Point", "coordinates": [ 14.1230263, 40.8272137 ] } },
{ "type": "Feature", "properties": { "N.": "291", "Indirizzo": "Via Fasano, 4", "Comune": "Pozzuoli", "Sopralluogo speditivo VVF/Comune": "null", "Tipo danno": "Lesioni Esterne e Interne", "STRUTTURALE": "S" }, "geometry": { "type": "Point", "coordinates": [ 14.1194184, 40.827372 ] } },
{ "type": "Feature", "properties": { "N.": "292", "Indirizzo": "Via Terracciano, 42", "Comune": "Pozzuoli", "Sopralluogo speditivo VVF/Comune": "null", "Tipo danno": "Lesioni Esterne e Interne", "STRUTTURALE": "S" }, "geometry": { "type": "Point", "coordinates": [ 14.1237099, 40.8267077 ] } },
{ "type": "Feature", "properties": { "N.": "293", "Indirizzo": "Via Terracciano, 42", "Comune": "Pozzuoli", "Sopralluogo speditivo VVF/Comune": "null", "Tipo danno": "Lesioni Esterne e Interne", "STRUTTURALE": "S" }, "geometry": { "type": "Point", "coordinates": [ 14.1237099, 40.8267077 ] } },
{ "type": "Feature", "properties": { "N.": "294", "Indirizzo": "Via Oberdan, 9", "Comune": "Pozzuoli", "Sopralluogo speditivo VVF/Comune": "null", "Tipo danno": "Lesioni Esterne e Interne, ed. in muratura, caduta intonaco e cornicione", "STRUTTURALE": "S" }, "geometry": { "type": "Point", "coordinates": [ 14.1239404, 40.8256146 ] } },
{ "type": "Feature", "properties": { "N.": "295", "Indirizzo": "Corso Nicola Terracciano, 33", "Comune": "Pozzuoli", "Sopralluogo speditivo VVF/Comune": "null", "Tipo danno": "Lesioni interne e esterne, pavimento spaccato, primi tre piani", "STRUTTURALE": "S" }, "geometry": { "type": "Point", "coordinates": [ 14.1226511, 40.8280412 ] } },
{ "type": "Feature", "properties": { "N.": "296", "Indirizzo": "Seconda Traversa Maroder, 2", "Comune": "Pozzuoli", "Sopralluogo speditivo VVF/Comune": "null", "Tipo danno": "Crepoa Solaio piano ammezzato", "STRUTTURALE": "S" }, "geometry": { "type": "Point", "coordinates": [ 14.126997, 40.8263837 ] } },
{ "type": "Feature", "properties": { "N.": "297", "Indirizzo": "Coste di Agnano, 13", "Comune": "Pozzuoli", "Sopralluogo speditivo VVF/Comune": "null", "Tipo danno": "Lesioni interne edificio a 2 piani lesioni vano scala", "STRUTTURALE": "S" }, "geometry": { "type": "Point", "coordinates": [ 14.1356637, 40.828206 ] } },
{ "type": "Feature", "properties": { "N.": "298", "Indirizzo": "Via Giuseppe Chiaro, 11", "Comune": "Pozzuoli", "Sopralluogo speditivo VVF/Comune": "null", "Tipo danno": "Lesioni interne e esterne, primo e terzo piano", "STRUTTURALE": "S" }, "geometry": { "type": "Point", "coordinates": [ 14.1334193, 40.8213065 ] } },
{ "type": "Feature", "properties": { "N.": "299", "Indirizzo": "Via Apollo, 12", "Comune": "Pozzuoli", "Sopralluogo speditivo VVF/Comune": "null", "Tipo danno": "Caduta Stacco e intonaco tramezzi, lesioni tra finestra e pilastro", "STRUTTURALE": "S" }, "geometry": { "type": "Point", "coordinates": [ 14.0877913, 40.8314659 ] } },
{ "type": "Feature", "properties": { "N.": "300", "Indirizzo": "Via Apollo, 12 - Lucrino IV piano", "Comune": "Pozzuoli", "Sopralluogo speditivo VVF/Comune": "null", "Tipo danno": "Caduta di stucco/intonaco", "STRUTTURALE": "S" }, "geometry": { "type": "Point", "coordinates": [ 14.0877913, 40.8314659 ] } },
{ "type": "Feature", "properties": { "N.": "301", "Indirizzo": "Via Oberdan, 10", "Comune": "Pozzuoli", "Sopralluogo speditivo VVF/Comune": "null", "Tipo danno": "lesioni interne - piano rialzato - tufo misto cemento", "STRUTTURALE": "S" }, "geometry": { "type": "Point", "coordinates": [ 14.1240474, 40.825943 ] } },
{ "type": "Feature", "properties": { "N.": "302", "Indirizzo": "Via favino vitagliano, 9/B", "Comune": "Pozzuoli", "Sopralluogo speditivo VVF/Comune": "null", "Tipo danno": "null", "STRUTTURALE": "S" }, "geometry": { "type": "Point", "coordinates": [ 14.1085836, 40.834653800000012 ] } },
{ "type": "Feature", "properties": { "N.": "303", "Indirizzo": "Via Pergolesi, 38", "Comune": "Pozzuoli", "Sopralluogo speditivo VVF/Comune": "null", "Tipo danno": "Lesioni in corrispondenza deipilastri - C.A. : calcinacci gonfiati", "STRUTTURALE": "S" }, "geometry": { "type": "Point", "coordinates": [ 14.121825, 40.8250122 ] } },
{ "type": "Feature", "properties": { "N.": "304", "Indirizzo": "Parco Olivetti, 19", "Comune": "Pozzuoli", "Sopralluogo speditivo VVF/Comune": "null", "Tipo danno": "lesioni estere", "STRUTTURALE": "S" }, "geometry": { "type": "Point", "coordinates": [ 14.1085823, 40.8346487 ] } },
{ "type": "Feature", "properties": { "N.": "305", "Indirizzo": "Via Solfatara, 101/C - Parco  di Bonito", "Comune": "Pozzuoli", "Sopralluogo speditivo VVF/Comune": "null", "Tipo danno": "Piano terra - lesioni interne e esterne", "STRUTTURALE": "S" }, "geometry": { "type": "Point", "coordinates": [ 14.1315259, 40.829421 ] } },
{ "type": "Feature", "properties": { "N.": "306", "Indirizzo": "Prima traversacostedi Agnano, 2", "Comune": "Pozzuoli", "Sopralluogo speditivo VVF/Comune": "null", "Tipo danno": "Vano scala lesioni", "STRUTTURALE": "S" }, "geometry": { "type": "Point", "coordinates": [ 14.1357885, 40.8281753 ] } },
{ "type": "Feature", "properties": { "N.": "307", "Indirizzo": "Parco De Luca, 110", "Comune": "Pozzuoli", "Sopralluogo speditivo VVF/Comune": "null", "Tipo danno": "Lesioni interne 1 piano", "STRUTTURALE": "S" }, "geometry": { "type": "Point", "coordinates": [ 14.1215686, 40.880352 ] } },
{ "type": "Feature", "properties": { "N.": "308", "Indirizzo": "Via Solfatara, 18", "Comune": "Pozzuoli", "Sopralluogo speditivo VVF/Comune": "null", "Tipo danno": "Lesioni interne - intero edificio - caduta calcinacci", "STRUTTURALE": "S" }, "geometry": { "type": "Point", "coordinates": [ 14.1275915, 40.8272076 ] } },
{ "type": "Feature", "properties": { "N.": "309", "Indirizzo": "Via Vecchia delle igne - parco cuma67", "Comune": "Pozzuoli", "Sopralluogo speditivo VVF/Comune": "null", "Tipo danno": "Lesione su canna fumaria- altezza intero edificio", "STRUTTURALE": "S" }, "geometry": { "type": "Point", "coordinates": [ 14.1328609, 40.8334437 ] } },
{ "type": "Feature", "properties": { "N.": "310", "Indirizzo": "Via pargolesi 152", "Comune": "Pozzuoli", "Sopralluogo speditivo VVF/Comune": "null", "Tipo danno": "Lesioni interne e esterne - lesion che attraversano ilmuro", "STRUTTURALE": "S" }, "geometry": { "type": "Point", "coordinates": [ 14.1203769, 40.8297956 ] } },
{ "type": "Feature", "properties": { "N.": "311", "Indirizzo": "Via girone 1", "Comune": "Pozzuoli", "Sopralluogo speditivo VVF/Comune": "null", "Tipo danno": "Lesioni 4°piano murolesionato, distacco tetto", "STRUTTURALE": "S" }, "geometry": { "type": "Point", "coordinates": [ 14.1085823, 40.8346487 ] } },
{ "type": "Feature", "properties": { "N.": "312", "Indirizzo": "Via savino vitalano 12", "Comune": "Pozzuoli", "Sopralluogo speditivo VVF/Comune": "null", "Tipo danno": "1° piano crepa fra soffitto e prete", "STRUTTURALE": "S" }, "geometry": { "type": "Point", "coordinates": [ 14.1337644, 40.821331699999988 ] } },
{ "type": "Feature", "properties": { "N.": "313", "Indirizzo": "Rione cappuccini 15E, traversa umberto 1°", "Comune": "Pozzuoli", "Sopralluogo speditivo VVF/Comune": "null", "Tipo danno": "Crepe all'interno 1/2 piano - anche negli immobili- crepa su muro portante", "STRUTTURALE": "S" }, "geometry": { "type": "Point", "coordinates": [ 14.0894948, 40.8713248 ] } },
{ "type": "Feature", "properties": { "N.": "314", "Indirizzo": "Via pervolesi 90", "Comune": "Pozzuoli", "Sopralluogo speditivo VVF/Comune": "null", "Tipo danno": "Caduto muro di contenimento", "STRUTTURALE": "S" }, "geometry": { "type": "Point", "coordinates": [ 14.1220279, 40.827066599999988 ] } },
{ "type": "Feature", "properties": { "N.": "315", "Indirizzo": "Viale bognar 26", "Comune": "Pozzuoli", "Sopralluogo speditivo VVF/Comune": "null", "Tipo danno": "Lesioni", "STRUTTURALE": "S" }, "geometry": { "type": "Point", "coordinates": [ 14.1276781, 40.829212299999988 ] } },
{ "type": "Feature", "properties": { "N.": "316", "Indirizzo": "Via seratide 7", "Comune": "Pozzuoli", "Sopralluogo speditivo VVF/Comune": "null", "Tipo danno": "Crepe, lesioni interne all'edificio e al palazzo", "STRUTTURALE": "S" }, "geometry": { "type": "Point", "coordinates": [ 14.1198234, 40.8264498 ] } },
{ "type": "Feature", "properties": { "N.": "317", "Indirizzo": "Via montenuovo licola- patria36", "Comune": "Pozzuoli", "Sopralluogo speditivo VVF/Comune": "null", "Tipo danno": "Lesioni interne", "STRUTTURALE": "S" }, "geometry": { "type": "Point", "coordinates": [ 14.0956985, 40.8360694 ] } },
{ "type": "Feature", "properties": { "N.": "318", "Indirizzo": "Traversa Giacinto piano11", "Comune": "Pozzuoli", "Sopralluogo speditivo VVF/Comune": "null", "Tipo danno": "Crepe stanze- corridoio- bagno / cucia", "STRUTTURALE": "S" }, "geometry": { "type": "Point", "coordinates": [ 14.126105, 40.8291156 ] } },
{ "type": "Feature", "properties": { "N.": "319", "Indirizzo": "Via barletta7A, 4°traversa", "Comune": "Pozzuoli", "Sopralluogo speditivo VVF/Comune": "null", "Tipo danno": "Crepe interne , pareti", "STRUTTURALE": "S" }, "geometry": { "type": "Point", "coordinates": [ 14.1282486, 40.8220063 ] } },
{ "type": "Feature", "properties": { "N.": "320", "Indirizzo": "Via girone 38", "Comune": "Pozzuoli", "Sopralluogo speditivo VVF/Comune": "null", "Tipo danno": "Crepe interne esterne , in facciata", "STRUTTURALE": "S" }, "geometry": { "type": "Point", "coordinates": [ 14.1085823, 40.8346487 ] } },
{ "type": "Feature", "properties": { "N.": "321", "Indirizzo": "Via napoli / via spezzata canvas 14 - pozzuoli", "Comune": "Pozzuoli", "Sopralluogo speditivo VVF/Comune": "null", "Tipo danno": "Crepe interne - corridoio", "STRUTTURALE": "S" }, "geometry": { "type": "Point", "coordinates": [ 14.149589, 40.8183122 ] } },
{ "type": "Feature", "properties": { "N.": "322", "Indirizzo": "3° traversa pisciarelli28/f pozzuoli", "Comune": "Pozzuoli", "Sopralluogo speditivo VVF/Comune": "null", "Tipo danno": "crepe intrne  sia al palazzo che in edificio", "STRUTTURALE": "S" }, "geometry": { "type": "Point", "coordinates": [ 14.1544804, 40.8313245 ] } },
{ "type": "Feature", "properties": { "N.": "323", "Indirizzo": "Via alfonzo artiaco n.146", "Comune": "Pozzuoli", "Sopralluogo speditivo VVF/Comune": "null", "Tipo danno": "Crepe murarie, spaccatre vetri , calcinacci sottoscale", "STRUTTURALE": "S" }, "geometry": { "type": "Point", "coordinates": [ 14.116875, 40.840931 ] } },
{ "type": "Feature", "properties": { "N.": "324", "Indirizzo": "Via Tommaso pollice 22", "Comune": "Pozzuoli", "Sopralluogo speditivo VVF/Comune": "null", "Tipo danno": "Lesioni s muratura perimetrali portanti", "STRUTTURALE": "S" }, "geometry": { "type": "Point", "coordinates": [ 14.09573, 40.83692 ] } },
{ "type": "Feature", "properties": { "N.": "325", "Indirizzo": "Corso Nicola Terracciano, 42", "Comune": "Pozzuoli", "Sopralluogo speditivo VVF/Comune": "null", "Tipo danno": "Tramezzi  con lesioni importanti , lesioi sututta la facciata del fabbricato, sul retro, scale", "STRUTTURALE": "S" }, "geometry": { "type": "Point", "coordinates": [ 14.1237099, 40.8267077 ] } },
{ "type": "Feature", "properties": { "N.": "326", "Indirizzo": "I Traversa  Coste D'Agnano 23", "Comune": "Pozzuoli", "Sopralluogo speditivo VVF/Comune": "null", "Tipo danno": "Crepe in varie stanza, in paretianche portanti", "STRUTTURALE": "S" }, "geometry": { "type": "Point", "coordinates": [ 14.138831, 40.8324227 ] } },
{ "type": "Feature", "properties": { "N.": "327", "Indirizzo": "Via Serapide, 33", "Comune": "Pozzuoli", "Sopralluogo speditivo VVF/Comune": "null", "Tipo danno": "Caduta di matonelle e intonaco - lesioni tramezzi", "STRUTTURALE": "S" },